DEP_Code,Name,Street_Add,Town_City,Type,Zip Code,tons,Lat,Long,X_Coord,Y_Coord,Status,Score
R1427,redacted,redacted,Shelburne Falls,R,,27,42.60366671,72.7409107,98171.7172,928862.8306,M,100
R3688,redacted,redacted,Worcester,R,,120,42.263585,71.7899003,176081.7954,890386.8639,M,100
R1508,redacted,redacted,Cambridge,R,,30,42.3736773,71.1004939,232903.891,902651.864,M,100
R2496,redacted,redacted,Ipswich,R,,45,42.68418008,70.8517239,253130.4828,937267.8518,M,100
R3689,redacted,redacted,Westminster,R,,120,42.54974874,71.8857027,168321.4117,922204.3609,M,100
R2017,redacted,redacted,Boston,R,,36,42.32215419,71.0611181,236176.361,896944.872,M,100
R2830,redacted,redacted,Boston,R,,46.5,42.3466571,71.0690856,235505.8645,899663.178,M,100
R2497,redacted,redacted,Boston,R,,45,42.35226425,71.0725576,235216.6616,900284.5535,M,100
W1,redacted,redacted,Turners Falls,W,,,42.6087949,72.5560485,113347.592,929228.1912,M,100
R3455,redacted,redacted,Boston,R,,90,42.3483641,71.0730409,235179.0121,899851.144,M,100
R463,redacted,redacted,Natick,R,,18,42.28250104,71.3804818,209857.9124,892454.219,M,100
R2018,redacted,redacted,Harwich,R,,36,41.70710987,70.0232191,322905.9195,829602.37,M,100
R1509,redacted,redacted,Marblehead,R,,30,42.5014929,70.8557952,252950.0862,916972.3688,M,100
R2405,redacted,redacted,NORTH DARTMOUTH,R,,42,41.64915306,70.9875547,242689.0966,822229.4769,M,100
R1510,redacted,redacted,Boston,R,,30,42.35677043,71.0707007,235367.1359,900785.8472,M,100
G1,redacted,redacted,Boston,G,,105,42.31877289,71.0891849,233864.6857,896557.7729,M,100
R1,redacted,redacted,Concord,R,,15,42.45651441,71.3930041,208800.8208,911781.7239,M,100
R3029,redacted,redacted,Fairhaven,R,,60,41.63813025,70.881235,251554.7602,821063.9635,M,100
R3030,redacted,redacted,Haverhill,R,,60,42.77137,71.1147431,231530.784,946822.9266,M,100
R3173,redacted,redacted,Billerica,R,,64.5,42.5407486,71.2474048,220749.1878,921163.7069,M,100
R3176,redacted,redacted,Revere,R,,66,42.41142398,70.9963223,241458.765,906890.0259,M,100
R3178,redacted,redacted,Andover,R,,67.5,42.64290368,71.2095516,223819.9525,932521.2778,M,100
R3179,redacted,redacted,Salem,R,,67.5,42.5350993,70.8871364,250347.2357,920686.3264,M,100
R3234,redacted,redacted,Centerville,R,,75,41.65715315,70.3453428,296173.9703,823640.7599,M,100
R3235,redacted,redacted,Fitchburg,R,,75,42.57265758,71.7795184,177050.854,924715.11,M,100
R3236,redacted,redacted,Mashpee,R,,75,41.62136314,70.4884316,284303.524,819514.5859,T,100
R3237,redacted,redacted,Pittsfield,R,,75,42.46780904,73.2034522,59918.8726,914429.6369,M,100
R3238,redacted,redacted,Wareham,R,,75,41.76197907,70.6742504,268666.8393,834964.9593,M,61
R3239,redacted,redacted,West Yarmouth,R,,75,41.6499504,70.2425018,304751.0217,822961.9741,M,100
R3240,redacted,redacted,SOUTH WEYMOUTH,R,,75,42.1661319,70.9552509,245013.3992,879665.4984,M,100
R3241,redacted,redacted,Worcester,R,,75,42.32533616,71.792856,175861.4897,897246.6805,M,100
R3402,redacted,redacted,Quincy,R,,82.5,42.27277122,71.027806,238952.5613,891474.3938,M,100
R3433,redacted,redacted,Bridgewater,R,,85.5,41.99601112,70.9730945,243655.6997,860761.0777,M,100
R3434,redacted,redacted,Franklin,R,,85.5,42.09040161,71.432237,205606.0712,871112.4745,M,100
R3435,redacted,redacted,Greenfield,R,,85.5,42.58707842,72.6237367,107762.0724,926887.0227,M,100
R3436,redacted,redacted,Hingham,R,,85.5,42.24800912,70.9263015,247344.3257,888775.3557,M,100
R3437,redacted,redacted,MILFORD,R,,85.5,42.15090955,71.5013196,199890.9305,877830.9741,M,100
R3438,redacted,redacted,Pembroke,R,,85.5,42.1078721,70.7697542,260396.328,873309.2581,M,100
R3439,redacted,redacted,Plymouth,R,,85.5,41.9329703,70.6588905,269756.8055,853968.2607,M,100
R3440,redacted,redacted,Springfield,R,,85.5,42.13785856,72.5831148,110462.5929,876949.8654,M,100
R3441,redacted,redacted,Springfield,R,,85.5,42.14348564,72.4878308,118346.2671,877479.2127,M,100
R3442,redacted,redacted,Taunton,R,,85.5,41.90594518,71.0690208,235758.5392,850713.0029,M,100
R3443,redacted,redacted,Tewksbury,R,,85.5,42.62058219,71.2594892,219731.5235,930028.9638,M,100
R3444,redacted,redacted,West Springfield,R,,85.5,42.13277478,72.6258669,106921.168,876431.0131,M,100
R3445,redacted,redacted,Westford,R,,85.5,42.55465251,71.4484058,204237.2279,922678.7397,M,100
R3446,redacted,redacted,Wilmington,R,,85.5,42.54038204,71.1546613,228367.6383,921149.6918,M,100
R3447,redacted,redacted,Worcester,R,,85.5,42.26661235,71.7952041,175645.3746,890724.6243,M,100
R3448,redacted,redacted,Worcester,R,,85.5,42.2391645,71.7458737,179706.3794,887662.9776,M,100
R3453,redacted,redacted,SOMERVILLE,R,,88.5,42.3944881,71.0835915,234284.7008,904970.1037,M,51
R3456,redacted,redacted,Billerica,R,,90,42.52849707,71.2570555,219960.3222,919800.4905,M,100
R3457,redacted,redacted,East Longmeadow,R,,90,42.07791621,72.5245011,115227.7761,870232.5905,M,100
R3458,redacted,redacted,Fall River,R,,90,41.69912136,71.1484493,229263.0374,827711.4098,M,100
R3459,redacted,redacted,Hudson,R,,90,42.37622183,71.5646675,194674.0861,902859.4651,M,100
R3460,redacted,redacted,Lowell,R,,90,42.6168426,71.3254466,214321.2327,929600.3887,M,100
R3461,redacted,redacted,Lynnfield,R,,90,42.5124328,71.0235776,239152.6778,918096.9701,M,100
R3462,redacted,redacted,Milford,R,,90,42.15090955,71.5013196,199890.9305,877830.9741,M,100
R3463,redacted,redacted,North Andover,R,,90,42.686389,71.1219565,230982.2561,937379.9876,M,100
R3464,redacted,redacted,North Attleboro,R,,90,41.933723,71.3517415,212295.7585,853718.6066,M,100
R3465,redacted,redacted,North Dartmouth,R,,90,41.65190697,70.9876575,242678.6896,822535.2911,M,86
R3466,redacted,redacted,Rockland,R,,90,42.16731873,70.8889492,250490.9742,879834.4387,M,100
R3467,redacted,redacted,Saugus,R,,90,42.49347411,71.0164709,239748.6426,915994.3468,M,100
R3468,redacted,redacted,Seekonk,R,,90,41.80425433,71.3308267,214058.8404,839341.9488,M,100
R3469,redacted,redacted,Stoneham,R,,90,42.49953265,71.100782,232814.7353,916631.4603,M,100
R3470,redacted,redacted,Waltham,R,,90,42.37201583,71.2499781,220592.7499,902420.437,M,100
R3471,redacted,redacted,Woburn,R,,90,42.4669757,71.1774351,226527.7467,912988.3986,M,100
R3472,redacted,redacted,Woburn,R,,90,42.50015536,71.1421627,229413.0733,916685.5361,M,100
R3578,redacted,redacted,Canton,R,,97.5,42.17228634,71.1113462,232112.0163,880278.5077,M,100
R3579,redacted,redacted,Foxboro,R,,97.5,42.03890998,71.2382212,221674.6409,865424.2861,M,100
R3580,redacted,redacted,South Easton,R,,97.5,42.05311034,71.0756741,235125.2028,867055.6375,M,100
R3581,redacted,redacted,EAST WALPOLE,R,,97.5,42.15655717,71.2026828,224571.5683,878501.0929,M,51
R3612,redacted,redacted,Auburn,R,,105,42.18143997,71.868682,169542.5117,881287.8916,M,100
R3613,redacted,redacted,Woburn,R,,105,42.50358074,71.1339004,230090.5648,917068.9073,M,100
R3242,redacted,redacted,Danvers,R,,75,42.54974541,70.9432277,245728.7389,922281.6157,M,100
F1,redacted,redacted,New Bedford,F,,,41.62686,70.9170614,248578.3564,819791.2048,M,100
G2,redacted,redacted,Dennis,G,,39,41.74739,70.17838,309924.3421,833863.8267,M,100
G3,redacted,redacted,Bourne,G,,75,41.71682161,70.5894322,275773.3448,830021.4913,M,100
G4,redacted,redacted,Barnstable,G,,33,41.64751008,70.2949766,300383.9395,822627.8616,M,100
G5,redacted,redacted,Provincetown,G,,150,42.0490116,70.1935045,308153.3563,867341.3374,M,100
G6,redacted,redacted,Chatham,G,,37.5,41.68308477,69.9955878,325252.3747,826974.5595,M,63
G7,redacted,redacted,Peabody,G,,262.5,42.52071414,70.9217869,247511.5487,919068.5645,M,100
F2,redacted,redacted,Hopkinton,F,,,42.21466108,71.4981666,200151.3779,884912.0435,M,100
F3,redacted,redacted,Wareham,F,,,41.78828304,70.713397,265384.6793,837855.5978,M,100
R2044,redacted,redacted,Northborough,R,,37.5,42.30542911,71.6668649,186241.8949,895007.5099,M,100
R3243,redacted,redacted,Nantucket,R,,75,41.2610602,70.0647165,320286.2115,780008.4783,M,100
R1903,redacted,redacted,Milton,R,,31.5,42.25922002,71.0414076,237838.6289,889963.0993,M,100
W2,redacted,redacted,New Bedford,W,,,41.62686,70.9170614,248578.3564,819791.2048,M,100
W3,redacted,redacted,Boston,W,,,42.33020601,71.067558,235640.9976,897836.5132,M,66
W4,redacted,redacted,Worcester,W,,,42.22044023,71.7837907,176569.9217,885592.9302,M,66
G8,redacted,redacted,Peabody,G,,7.5,42.5299229,70.9272682,247054.2882,920088.4239,M,100
R3031,redacted,redacted,Boston,R,,60,42.36416,71.053635,236768.7556,901613.8619,M,100
W5,redacted,redacted,Springfield,W,,,42.11027603,72.609455,108245.4098,873914.4684,M,66
R464,redacted,redacted,Nantucket,R,,18,41.26733977,70.1013394,317205.8095,780654.8675,M,100
R1338,redacted,redacted,Salem,R,,24,42.52109448,70.8955885,249663.9219,919125.7352,M,100
W6,redacted,redacted,Watertown,W,,,42.58094298,72.2179958,141059.1283,925845.9483,T,66
W7,redacted,redacted,Boston,W,,,42.33016936,71.0653809,235820.4472,897833.3548,M,66
R1511,redacted,redacted,Haverhill,R,,30,42.77456501,71.0787123,234477.8929,947191.7981,M,100
R1512,redacted,redacted,Orleans,R,,30,41.7843329,70.0009329,324609.7805,838210.3999,M,100
R3572,redacted,redacted,Boston,R,,93,42.36414266,71.061518,236119.4211,901608.5682,M,100
IH206,redacted,redacted,LYNN,IH,,18.0675,42.47514375,70.9277587,247054.8172,914003.3866,M,100
R3685,redacted,redacted,Boston,R,,117,42.34889856,71.0816854,234466.4687,899906.9805,M,100
IH207,redacted,redacted,WINCHESTER,IH,,40.4055,42.46113177,71.1379119,229780.8721,912352.3087,M,100
R3449,redacted,redacted,Boston,R,,85.5,42.3390316,71.0682329,235580.4095,898816.532,M,100
F4,redacted,redacted,Boston,F,,,42.34653549,71.0291151,238799.3391,899667.0802,M,100
R2,redacted,redacted,Newburyport,R,,15,42.81104508,70.8691597,251597.2968,951350.0535,M,100
W8,redacted,redacted,Boston,W,,,42.3495511,71.0392174,237965.1404,899997.4929,M,66
W9,redacted,redacted,Springfield,W,,,42.6718754,71.8107498,174526.8482,935745.4671,T,66
R3244,redacted,redacted,Westborough,R,,75,42.28308861,71.6463987,187925.086,892522.9384,M,100
IH208,redacted,redacted,ANDOVER,IH,,57.159,42.655865,71.12952,230377.1271,933986.5065,M,100
R1513,redacted,redacted,Orleans,R,,30,41.786711,69.9874292,325727.4716,838494.3061,M,100
R1514,redacted,redacted,NORWOOD,R,,30,42.19429339,71.1837407,226121.479,882698.1609,M,100
R2045,redacted,redacted,Quincy,R,,37.5,42.24995567,71.0024533,241058.7298,888952.1005,M,100
G9,redacted,redacted,Buzzards Bay,G,,30,41.73651692,70.6210573,273119.2058,832181.2838,M,100
F5,redacted,redacted,Fall River,F,,,41.68891853,71.134898,230395.8923,826582.9544,M,100
R3,redacted,redacted,Easthampton,R,,15,42.28066806,72.6701599,103484.9099,892905.7605,M,100
R3245,redacted,redacted,Boston,R,,75,42.283405,71.055715,236644.1416,892643.1545,M,100
F6,redacted,redacted,Athol,F,,,42.59358251,72.2023103,142358.2937,927239.2201,M,100
G10,redacted,redacted,Quincy,G,,15,42.2612064,70.9796798,242930.4108,890212.9577,M,100
IH142,redacted,redacted,WORCESTER,IH,,71.1531,42.276427,71.7953933,175633.5396,891814.8313,M,100
W49,redacted,redacted,Somerville,W,,,42.4083357,71.1366817,229907.0331,906488.2719,T,66
F7,redacted,redacted,Mansfield,F,,,42.04005585,71.2127502,223783.14,865558.3451,M,100
R4,redacted,redacted,Sturbridge,R,,15,42.1119265,72.0971682,150613.0511,873673.9313,M,100
R2046,redacted,redacted,North Truro,R,,37.5,42.04843817,70.1062566,315376.2667,867391.9765,M,85
W10,redacted,redacted,Salem,W,,,41.97199932,71.3080281,215911.5413,857977.1569,T,66
R3246,redacted,redacted,Watertown,R,,75,42.36237106,71.1530417,228581.1155,901377.0741,M,100
R3473,redacted,redacted,Framingham,R,,90,42.30213734,71.4040494,207911.5977,894632.8673,M,100
F8,redacted,redacted,Somerville,F,,,42.38926236,71.0864844,234049.3351,904388.489,M,100
R3032,redacted,redacted,Newburyport,R,,60,42.8101701,70.8701354,251518.2144,951252.2636,M,100
R2890,redacted,redacted,ROWLEY,R,,52.5,42.705405,70.909075,248413.9276,939591.4645,M,100
G11,redacted,redacted,Agawam,G,,27,42.06726772,72.6157665,107660.9812,869144.6979,M,100
R389,redacted,redacted,Natick,R,,16.5,42.285044,71.3463442,212673.0875,892741.1861,M,100
R5,redacted,redacted,Chelmsford,R,,15,42.61477398,71.3438565,212811.2181,929367.6705,M,100
F9,redacted,redacted,Methuen,F,,,42.73744809,71.1552553,228230.3721,943040.4107,M,100
F10,redacted,redacted,Methuen,F,,,42.73744809,71.1552553,228230.3721,943040.4107,M,100
F11,redacted,redacted,West Springfield,F,,,42.1300674,72.626232,106887.0139,876130.7229,M,100
F12,redacted,redacted,Dartmouth,F,,,41.58624519,70.9431958,246429.9559,815265.7586,M,100
R3033,redacted,redacted,Concord,R,,60,42.45677216,71.3573203,211735.9039,911814.6502,M,100
R465,redacted,redacted,Boston,R,,18,42.3642664,71.0555006,236615.0189,901624.8777,M,100
R2498,redacted,redacted,Fall River,R,,45,41.71636882,71.1537447,228814.4774,829625.2275,M,100
R2499,redacted,redacted,Milford,R,,45,42.14917891,71.4989362,200087.9277,877638.7484,M,100
G12,redacted,redacted,Lexington,G,,22.5,42.4482664,71.2289731,222295.8792,910895.444,M,100
R3247,redacted,redacted,Hyannis,R,,75,41.65320431,70.2829649,301375.4766,823274.4485,M,100
R3403,redacted,redacted,Stoughton,R,,82.5,42.14009669,71.102787,232835.8539,876706.4211,M,100
G13,redacted,redacted,Worcester,G,,18,42.26420328,71.8018106,175099.3873,890458.947,M,100
R2500,redacted,redacted,Edgartown,R,,45,41.39002387,70.5145988,282419.6984,793796.3957,M,100
R2501,redacted,redacted,Gloucester,R,,45,42.61219394,70.661108,268830.9036,929407.8231,M,100
IH209,redacted,redacted,FAIRHAVEN,IH,,46.647,41.6654208,70.9043399,249608.5547,824081.2821,M,100
F13,redacted,redacted,Sudbury,F,,,42.3604548,71.4237517,206281.256,901108.9,M,100
R390,redacted,redacted,Leominster,R,,16.5,42.53168021,71.74448,179914.5378,920154.4367,M,100
R466,redacted,redacted,Boston,R,,18,42.3299659,71.0569506,236515.3682,897814.3298,M,100
F14,redacted,redacted,Quincy,F,,,42.24204725,71.0027355,241040.5662,888073.5578,M,100
W11,redacted,redacted,Quincy,W,,,42.22638834,71.8338301,172441.221,886268.5603,T,66
R979,redacted,redacted,Holden,R,,22.5,42.33918753,71.8377773,172164.9816,898798.9118,M,100
R1428,redacted,redacted,Cambridge,R,,27,42.373807,71.1213584,231185.4107,902658.4321,M,100
R980,redacted,redacted,Mendon,R,,22.5,42.09718262,71.5750888,193788.5241,871866.1573,M,100
R1391,redacted,redacted,Plymouth,R,,25.5,41.95867864,70.667911,268980.8594,856816.1968,M,100
W12,redacted,redacted,Foxboro,W,,,42.05849996,70.7052092,265785.5931,867873.396,T,66
R2842,redacted,redacted,Halifax,R,,48,41.99398538,70.8465699,254140.1772,860608.6171,M,100
F15,redacted,redacted,Randolph,F,,,42.18717995,71.0563556,236646.9004,881954.9277,M,100
F16,redacted,redacted,Sherborn,F,,,42.22270321,71.3754951,210278.915,885812.8122,M,100
IH210,redacted,redacted,BRAINTREE,IH,,33.1785,42.19258562,70.9911721,242027.6903,882585.4046,M,100
R3248,redacted,redacted,Marlborough,R,,75,42.34228095,71.5668806,194488.8663,899089.5634,M,100
G14,redacted,redacted,Boston,G,,15,42.2944048,71.067611,235656.7874,893859.9004,M,62
W13,redacted,redacted,Stoughton,W,,,42.13624312,71.1243068,231058.7998,876270.3421,M,66
R3034,redacted,redacted,Hingham,R,,60,42.25006803,70.9224766,247658.4185,889006.172,M,64
F17,redacted,redacted,Springfield,F,,,42.11970913,72.575219,111089.8613,874925.8758,M,100
R1935,redacted,redacted,Plymouth,R,,33,41.96106152,70.6675082,269011.6698,857081.1752,M,100
R981,redacted,redacted,Boston,R,,22.5,42.35914008,71.0545982,236692.3255,901055.858,M,100
R467,redacted,redacted,Northampton,R,,18,42.31970185,72.6293968,106904.2712,897195.7509,M,100
W14,redacted,redacted,Fall River,W,,,41.68877554,71.1763268,226946.8931,826553.1466,M,66
G15,redacted,redacted,New Bedford,G,,16.5,41.6645911,70.9230002,248055.1102,823978.4484,M,100
F18,redacted,redacted,New Bedford,F,,,41.62185,70.92205,248166.4117,819231.9397,M,100
R1515,redacted,redacted,East Sandwich,R,,30,41.72850932,70.3993159,291576.4143,831506.0335,M,100
R1936,redacted,redacted,Newton,R,,33,42.35819763,71.1848118,225965.7383,900903.3474,M,100
F19,redacted,redacted,Concord,F,,,42.45724132,71.3948029,208652.7651,911862.2847,M,100
R982,redacted,redacted,Gloucester,R,,22.5,42.62338688,70.6293239,271426.0066,930677.2531,M,100
W15,redacted,redacted,Chelsea,W,,,42.38749543,71.0402935,237853.7648,904211.695,M,66
R6,redacted,redacted,Rowley,R,,15,42.72511226,70.8645603,252044.6009,941806.8565,M,100
F20,redacted,redacted,Lynn,F,,,42.46411055,70.9476091,245430.4929,912767.0869,M,100
W16,redacted,redacted,Lynn,W,,,42.4112126,71.1461574,229125.707,906804.5504,T,66
R1516,redacted,redacted,Feeding Hills,R,,30,42.07690536,72.653851,104523.8386,870256.9947,M,100
G16,redacted,redacted,Boston,G,,34.5,42.26759865,71.1209201,231273.9385,890861.5278,M,100
W17,redacted,redacted,Everett,W,,,42.85881168,70.9297154,246608.9634,956621.5672,T,66
F21,redacted,redacted,Newton,F,,,42.3253638,71.2576304,219977.2001,897236.6944,M,100
IC1,redacted,redacted,Springfield,IC,,128.638125,42.11367282,72.5574298,112552.4673,874237.0737,M,100
F22,redacted,redacted,Boston,F,,,42.3397333,71.0522935,236893.5023,898901.2443,M,100
R468,redacted,redacted,Wareham,R,,18,41.7815074,70.7441437,262835.6599,837079.9613,T,62
W18,redacted,redacted,New Bedford,W,,,41.6402311,70.9236731,248017.3474,821272.5237,M,66
F23,redacted,redacted,New Bedford,F,,,41.6402311,70.9236731,248017.3474,821272.5237,M,100
R2047,redacted,redacted,Nantucket,R,,37.5,41.2869648,70.1022034,317097.699,782833.1329,M,100
F24,redacted,redacted,Amherst,F,,,42.3523917,72.4888999,118526.9127,900682.7639,M,100
IH1,redacted,redacted,AMESBURY,IH,,7.4898,42.84885682,70.9333156,246322.0714,955513.7137,M,100
R2048,redacted,redacted,Amesbury,R,,37.5,42.85197571,70.9316954,246452.1997,955861.0746,M,100
IH211,redacted,redacted,AMESBURY,IH,,42.705,42.85565285,70.9418885,245616.3735,956264.0693,M,100
F25,redacted,redacted,Amherst,F,,,42.3764648,72.519881,116006.5461,903386.5942,M,100
R7,redacted,redacted,Amherst,R,,15,42.37579,72.5183207,116134.148,903310.1087,M,100
IC2,redacted,redacted,Amherst,IC,,116.802,42.3720654,72.5187921,116090.3825,902896.884,T,63
R8,redacted,redacted,Chelmsford,R,,15,42.59392529,71.3496329,212341.3616,927050.8698,M,100
F26,redacted,redacted,Jamaica Plain,F,,,42.31419543,71.1027502,232748.8276,896044.0371,M,100
F27,redacted,redacted,New Bedford,F,,,41.62686,70.9170614,248578.3564,819791.2048,M,100
R2049,redacted,redacted,Worcester,R,,37.5,42.26336727,71.7905823,176025.4473,890362.8713,M,100
R3035,redacted,redacted,Boston,R,,60,42.34178961,71.0554433,236632.7504,899128.2904,M,100
F28,redacted,redacted,New Bedford,F,,,41.7263284,70.9542593,245407.8777,830818.196,M,54
R1517,redacted,redacted,Brookline,R,,30,42.33924642,71.1363424,229967.6803,898814.2219,M,100
R2050,redacted,redacted,Beverly,R,,37.5,42.54146076,70.8854241,250482.8125,921393.9622,M,100
IH212,redacted,redacted,SHELBURNE,IH,,11.169,42.59343114,72.6813966,103039.3339,927656.5892,M,80
R1518,redacted,redacted,Boston,R,,30,42.34384635,71.0776978,234797.8045,899347.4247,T,100
G17,redacted,redacted,Concord,G,,225,42.45993554,71.3501859,212322.1134,912167.0426,M,100
IC3,redacted,redacted,Newton,IC,,28.562625,42.32592992,71.1904886,225511.0825,897317.4793,M,96
R983,redacted,redacted,Worcester,R,,22.5,42.2357371,71.8500406,171107.2556,887312.319,M,100
R469,redacted,redacted,Belmont,R,,18,42.3895461,71.1945353,225152.235,904382.5091,M,100
R3731,redacted,redacted,Middleton,R,,150,42.5928594,71.0146601,239834.6814,927034.9198,M,100
R470,redacted,redacted,Dalton,R,,18,42.47311822,73.1630625,63251.33493,914953.7217,M,100
R471,redacted,redacted,Pittsfield,R,,18,42.4442433,73.2400256,56858.3206,911873.2241,M,100
R9,redacted,redacted,Pittsfield,R,,15,42.4575051,73.2291493,57782.7881,913327.8358,M,100
R1339,redacted,redacted,New Bedford,R,,24,41.63553893,70.9490368,245907.5401,820737.4219,M,100
R391,redacted,redacted,Stoneham,R,,16.5,42.486179,71.1001121,232876.7467,915148.4065,M,100
R10,redacted,redacted,Stoneham,R,,15,42.48633782,71.1001061,232877.1631,915166.0501,M,100
R472,redacted,redacted,Newburyport,R,,18,42.80995643,70.8705263,251486.4177,951228.2918,M,100
F29,redacted,redacted,Wakefield,F,,,42.52294366,71.0428882,237559.4812,919255.8273,M,100
IH100,redacted,redacted,NEWBURYPORT,IH,,69.28065,42.81488953,70.8906049,249840.2458,951764.3766,M,100
IC4,redacted,redacted,Paxton,IC,,73.85175,42.33006406,71.9194147,165432.6009,897815.3848,M,100
R1904,redacted,redacted,Cambridge,R,,31.5,42.38810699,71.1183237,231428.2429,904247.9346,M,100
IH213,redacted,redacted,REVERE,IH,,45.99,42.43884129,71.0177288,239679.5498,909925.2667,M,100
G18,redacted,redacted,Medway,G,,15,42.15135835,71.4113837,207324.2433,877884.6271,M,100
G19,redacted,redacted,Franklin,G,,18,42.08901527,71.4175817,206818.6633,870959.5592,M,100
G20,redacted,redacted,Franklin,G,,24,42.09905519,71.4276778,205982.4405,872073.9491,M,100
R810,redacted,redacted,Sturbridge,R,,19.5,42.09290897,72.0680428,153007.677,871545.2211,M,100
R11,redacted,redacted,Saugus,R,,15,42.4770608,71.0276418,238840.4422,914166.0357,M,100
R2051,redacted,redacted,West Springfield,R,,37.5,42.09975147,72.6110649,108097.0496,872747.3219,M,100
IH603,redacted,redacted,BOSTON,IH,,4.2705,42.30104411,71.0744548,235088.7412,894594.5166,M,100
R1519,redacted,redacted,Boston,R,,30,42.35171546,71.1214945,231185.0897,900204.5478,T,100
C1,redacted,redacted,Yarmouth,C,,13.7,41.70122998,70.2602201,303192.391,828635.2706,M,96
R3180,redacted,redacted,Yarmouth Port,R,,67.5,41.70122998,70.2602201,303192.391,828635.2706,M,100
R1520,redacted,redacted,Lynn,R,,30,42.46430398,70.946122,245552.6614,912789.3656,M,100
C2,redacted,redacted,Boston,C,,54.8,42.35109892,71.0438511,237582.4448,900167.365,M,100
R12,redacted,redacted,Swampscott,R,,15,42.48398977,70.8989796,249414.3289,915002.2538,M,100
R3645,redacted,redacted,Boston,R,,109.5,42.35109892,71.0438511,237582.4448,900167.365,M,100
R984,redacted,redacted,Malden,R,,22.5,42.42293417,71.0722405,235203.423,908134.4218,M,100
R985,redacted,redacted,Amherst,R,,22.5,42.37639019,72.5198796,116006.5587,903378.3056,M,100
R392,redacted,redacted,Springfield,R,,16.5,42.08707975,72.5794691,110692.5742,871306.41,M,100
R13,redacted,redacted,Lenox,R,,15,42.35981501,73.2834067,53094.05781,902570.8692,M,100
R2891,redacted,redacted,Worcester,R,,52.5,42.22880905,71.7560483,178863.1472,886515.2334,M,100
W19,redacted,redacted,Worcester,W,,,42.24339869,71.756149,178859.7006,888135.7803,M,66
R2052,redacted,redacted,Easthampton,R,,37.5,42.2737755,72.6625451,104102.5115,892131.6529,M,100
R2053,redacted,redacted,Norwood,R,,37.5,42.19421478,71.2007493,224716.6864,882684.3608,M,100
R14,redacted,redacted,North Adams,R,,15,42.69381678,73.1020717,68726.26992,939369.3177,M,100
R15,redacted,redacted,Shrewsbury,R,,15,42.27831304,71.690041,184324.3088,891999.5932,M,100
IH214,redacted,redacted,AYER,IH,,40.4055,42.57789851,71.5718453,194101.8046,925262.169,M,100
R1521,redacted,redacted,MILLBURY,R,,30,42.18515811,71.7637102,178215.6655,881668.7264,M,100
R2892,redacted,redacted,Pittsfield,R,,52.5,42.46812082,73.1958672,60543.21974,914451.8328,M,100
R3036,redacted,redacted,Malden,R,,60,42.4248001,71.069226,235450.4629,908342.9323,M,100
R3249,redacted,redacted,Leominster,R,,75,42.5408715,71.75997,178645.0599,921179.179,M,100
R3250,redacted,redacted,Quincy,R,,75,42.2786033,71.0318022,238619.3514,892120.3638,M,100
R3251,redacted,redacted,Springfield,R,,75,42.1407899,72.4990355,117416.6253,877190.5989,M,100
R3252,redacted,redacted,Stoughton,R,,75,42.13167985,71.1017274,232927.8087,875771.965,M,100
R3253,redacted,redacted,Westfield,R,,75,42.11269375,72.7205241,99064.16759,874308.4402,M,100
R3254,redacted,redacted,Worcester,R,,75,42.24680215,71.8342075,172418.95,888536.1082,M,100
R3388,redacted,redacted,Fall River,R,,76.5,41.6957105,71.1517225,228992.1272,827331.4591,M,100
R3389,redacted,redacted,Milford,R,,76.5,42.14847433,71.4932727,200556.0422,877560.5104,M,100
R3390,redacted,redacted,Seekonk,R,,76.5,41.80122004,71.3359601,213632.8826,839004.1031,M,100
R3391,redacted,redacted,Woburn,R,,76.5,42.50481508,71.1291795,230477.9926,917207.6941,M,81
R3395,redacted,redacted,Hudson,R,,78,42.37972173,71.5664229,194529.82,903248.3353,M,100
R3474,redacted,redacted,Greenfield,R,,90,42.58472948,72.6182656,108207.699,926620.2159,M,100
R3475,redacted,redacted,Hadley,R,,90,42.36165544,72.5427815,114100.5319,901764.5413,M,100
R3476,redacted,redacted,North Attleboro,R,,90,41.9528563,71.3443299,212906.557,855844.822,M,100
R3477,redacted,redacted,SAUGUS,R,,90,42.44734631,71.0260697,238988.045,910866.134,M,51
R3478,redacted,redacted,Sturbridge,R,,90,42.12534802,72.0556091,154059.7282,875141.4268,M,100
R3479,redacted,redacted,Tewksbury,R,,90,42.62718429,71.2706365,218815.0286,930759.8331,M,100
R3582,redacted,redacted,Auburn,R,,97.5,42.1843193,71.8577951,170443.2375,881603.8737,M,100
R3614,redacted,redacted,Danvers,R,,105,42.54933212,70.9407371,245933.5973,922237.045,M,100
IH604,redacted,redacted,ATHOL,IH,,10.512,42.58302459,72.1823098,143990.4027,926053.1258,M,100
R3037,redacted,redacted,Sandwich,R,,60,41.76911382,70.5008131,283079.468,835911.6343,M,100
R986,redacted,redacted,Northampton,R,,22.5,42.3337796,72.6402206,106033.022,898771.1811,M,100
W20,redacted,redacted,Dennis,W,,,41.73634785,70.2280779,305809.3706,832574.691,M,51
W21,redacted,redacted,Wrentham,W,,,42.10609073,70.9458857,245830.5709,873001.7277,T,66
W22,redacted,redacted,Boston,W,,,42.33459222,71.0622147,236078.8763,898325.9569,M,66
R16,redacted,redacted,Chilmark,R,,15,41.34771866,70.8356292,255605.7433,788838.077,M,100
R1522,redacted,redacted,Boston,R,,30,42.3436275,71.0722853,235243.91,899325.3381,M,100
F30,redacted,redacted,Hingham,F,,,42.1763999,70.905277,249134.7983,880833.5477,M,100
R1992,redacted,redacted,Chicopee,R,,34.5,42.14199692,72.6026465,108854.006,877430.1715,M,100
IH12,redacted,redacted,BOSTON,IH,,0,42.31598981,71.1117241,232008.1295,896239.9398,M,100
IH43,redacted,redacted,BROOKLINE,IH,,0,42.35115313,71.1214075,231192.5343,900142.1188,M,100
IH5,redacted,redacted,ATTLEBORO,IH,,0,41.92574531,71.358794,211712.3297,852831.5396,M,100
R1340,redacted,redacted,West Springfield,R,,24,42.12347545,72.6257287,106918.9607,875398.0573,M,100
R1523,redacted,redacted,Worcester,R,,30,42.24693873,71.8340665,172430.6439,888551.2322,M,100
R17,redacted,redacted,Southborough,R,,15,42.31735193,71.5203809,198319.903,896318.5876,M,100
R1993,redacted,redacted,Auburn,R,,34.5,42.20254459,71.8383489,172057.6743,883621.6421,M,100
R2054,redacted,redacted,Chicopee,R,,37.5,42.17923129,72.5807482,110716.4402,881542.386,M,100
F31,redacted,redacted,Auburn,F,,,42.21604776,71.8276788,172944.6133,885118.0335,M,100
R2502,redacted,redacted,Hyannis,R,,45,41.64893224,70.2913345,300685.0857,822790.0943,M,100
R3255,redacted,redacted,YARMOUTH PORT,R,,75,41.70492548,70.2223386,306339.0545,829092.2049,M,51
R18,redacted,redacted,Boston,R,,15,42.3599948,71.0556558,236604.7063,901150.3419,M,70
F32,redacted,redacted,Upton,F,,,42.18031539,71.5854866,192937.6522,881100.6954,M,100
R3780,redacted,redacted,Lenox,R,,165,42.39791932,73.2685909,54402.06653,906777.0695,M,100
F33,redacted,redacted,Woburn,F,,,42.47773369,71.1275512,230624.9611,914200.0965,M,100
IH605,redacted,redacted,ARLINGTON,IH,,6.2415,42.40370962,71.1504263,228777.7437,905969.6926,M,100
R19,redacted,redacted,Arlington,R,,15,42.404067,71.140083,229629.0558,906012.9307,M,100
G21,redacted,redacted,Monson,G,,67.5,42.09952083,72.3156859,132528.5199,872445.7494,M,100
IH215,redacted,redacted,BOSTON,IH,,27.2655,42.30954433,71.1315074,230380.3654,895516.7761,M,100
W23,redacted,redacted,Northborough,W,,,42.22320281,71.8462461,171414.8075,885918.8206,T,66
IH216,redacted,redacted,STONEHAM,IH,,7.227,42.48940984,71.1151431,231639.3688,915501.6006,M,100
F34,redacted,redacted,Somerville,F,,,42.3752253,71.0928364,233533.7481,902826.7917,M,100
R3256,redacted,redacted,Eastham,R,,75,41.84297828,69.9825644,326020.6279,844750.008,M,100
W24,redacted,redacted,Chelsea,W,,,42.39529006,71.0527082,236826.9629,905072.0561,M,60
W25,redacted,redacted,Chelsea,W,,,42.39529006,71.0527082,236826.9629,905072.0561,M,52
F35,redacted,redacted,Raynham,F,,,41.90996124,71.0624063,236305.0506,851161.8509,M,100
R3038,redacted,redacted,Westborough,R,,60,42.27391264,71.610435,190890.034,891499.2545,M,100
R987,redacted,redacted,Braintree,R,,22.5,42.22048542,71.0382031,238126.3265,885662.1808,M,100
R3181,redacted,redacted,CAMBRIDGE,R,,67.5,42.36278633,71.0992732,233010.1116,901442.6126,M,100
G22,redacted,redacted,Ashburnham,G,,30,42.63576,71.9098145,166386.9741,931767.9156,M,100
G24,redacted,redacted,Hanover,G,,25.5,42.11350741,70.813297,256790.0854,873905.2481,M,100
G25,redacted,redacted,Hanover,G,,25.5,42.15650955,70.8499707,253720.8425,878657.68,M,100
R2055,redacted,redacted,Assonet,R,,37.5,41.79415088,71.0707438,235678.0683,838295.6118,M,100
IC5,redacted,redacted,Worcester,IC,,196.04025,42.2895814,71.8301777,172769.9058,893286.4667,M,100
R1524,redacted,redacted,Cambridge,R,,30,42.3669174,71.0925413,233562.4604,901904.1013,M,100
R3039,redacted,redacted,Boston,R,,60,42.34631976,71.0755304,234975.0252,899623.0455,M,100
F36,redacted,redacted,Boston,F,,,42.2928317,71.0718218,235310.4255,893683.4184,T,100
G26,redacted,redacted,Brockton,G,,16.5,42.08408557,71.0214891,239591.2234,870519.7708,M,100
R473,redacted,redacted,Lowell,R,,18,42.64463353,71.3129347,215341.0005,932689.7052,M,100
R474,redacted,redacted,Waltham,R,,18,42.36468562,71.2385056,221540.1599,901609.0568,M,100
IH4,redacted,redacted,ATHOL,IH,,15.60375,42.58619872,72.2085081,141842.8124,926423.2391,M,100
R988,redacted,redacted,Athol,R,,22.5,42.58996397,72.2150143,141312.2734,926845.9379,M,100
G27,redacted,redacted,Amherst,G,,225,42.3186798,72.5286094,115210.3453,896977.1384,M,100
R3480,redacted,redacted,Nantucket,R,,90,41.2846205,70.098309,317428.1899,782578.1415,M,100
W26,redacted,redacted,New Bedford,W,,,42.55934917,70.8956446,249629.2084,923374.9955,T,66
F37,redacted,redacted,Boston,F,,,42.3794342,71.0710995,235321.6205,903303.0725,M,100
F38,redacted,redacted,New Bedford,F,,,41.64496017,70.9240323,247983.8788,821797.556,M,100
W27,redacted,redacted,Boston,W,,,42.3502232,71.0386497,238011.5114,900072.3995,M,66
W28,redacted,redacted,Lynn,W,,,42.45724736,70.956234,244726.0237,912000.1851,M,66
R3732,redacted,redacted,Edgartown,R,,150,41.38913452,70.5122648,282616.0445,793699.8815,M,100
R3686,redacted,redacted,Boston,R,,117,42.34902673,71.081154,234510.1867,899921.4315,M,100
G28,redacted,redacted,Reading,G,,300,42.522265,71.10655,232328.972,919154.3604,M,100
W29,redacted,redacted,New Bedford,W,,,41.93364552,71.3003362,216559.0488,853718.6963,T,66
C3,redacted,redacted,West Yarmouth,C,,0,41.68229461,70.2497477,304094.8171,826545.1116,M,100
IH606,redacted,redacted,LYNN,IH,,6.8985,42.46272728,70.9331509,246620.5927,912621.2385,M,100
W30,redacted,redacted,Boston,W,,,42.33006511,71.0654493,235814.8719,897821.746,M,66
IC6,redacted,redacted,Lancaster,IC,,34.72875,42.44479075,71.6842203,184844.3714,910490.3156,M,100
R2056,redacted,redacted,Cohasset,R,,37.5,42.23937411,70.7912261,258499.13,887900.0638,M,100
R2057,redacted,redacted,Amherst,R,,37.5,42.3763402,72.5191082,116070.0208,903371.9934,M,100
F39,redacted,redacted,Bourne,F,,,41.71914103,70.6129173,273816.4182,830258.4967,M,100
R2503,redacted,redacted,Edgartown,R,,45,41.39221296,70.5234356,281677.8238,794031.0191,M,100
R989,redacted,redacted,Attleboro,R,,22.5,41.94151762,71.2829205,218001.1881,854596.5709,M,100
R1525,redacted,redacted,Somerville,R,,30,42.39686423,71.1228067,231054.7965,905219.0157,M,100
F40,redacted,redacted,Roxbury,F,,,42.32788118,71.0751463,235016.8794,897575.1403,M,100
R3257,redacted,redacted,Auburn,R,,75,42.18987291,71.8470294,171335.0782,882217.0504,M,100
G29,redacted,redacted,Somerset,G,,67.5,41.736041,71.1513155,229007.6939,831810.9792,M,100
R2391,redacted,redacted,Boston,R,,40.5,42.34719971,71.1030531,232706.8012,899709.8668,M,100
R990,redacted,redacted,Boston,R,,22.5,42.3495873,71.0408246,237832.6999,900000.7995,M,100
R1429,redacted,redacted,Boston,R,,27,42.35134299,71.0499925,237076.3065,900191.7867,M,100
IH217,redacted,redacted,WORCESTER,IH,,52.56,42.29608762,71.7681468,177887.9088,893991.2003,M,100
R1526,redacted,redacted,Lunenburg,R,,30,42.54841155,71.6845858,184839.2104,922000.6032,M,100
C4,redacted,redacted,Boston,C,,22.8,42.34717001,71.0950416,233366.9221,899709.6704,M,100
F41,redacted,redacted,Stoughton,F,,,42.1271481,71.0862518,234209.709,875274.7103,M,63
R2893,redacted,redacted,Avon,R,,52.5,42.1193914,71.0316422,238729.6517,874436.5201,M,100
R3258,redacted,redacted,Boston,R,,75,42.34891781,71.0792205,234669.5542,899910.1179,M,100
W31,redacted,redacted,Boston,W,,,42.33455654,71.0634902,235973.7829,898321.4547,M,66
R2872,redacted,redacted,Brookline,R,,49.5,42.33888261,71.1366684,229940.9888,898773.6975,M,100
F42,redacted,redacted,Boston,F,,,42.34609466,71.0340785,238390.645,899615.8697,M,100
991,redacted,redacted,Boston,R,,22.5,42.3492978,71.083608,234307.8505,899950.5513,M,100
R1336,redacted,redacted,Boston,R,,22.5,42.34708804,71.0876171,233978.7102,899703.4965,M,100
R1337,redacted,redacted,Boston,R,,22.5,42.30136688,71.0766997,234903.4608,894629.4468,T,81
R1527,redacted,redacted,Boston,R,,30,42.3467292,71.0757213,234959.0675,899668.4459,M,100
W32,redacted,redacted,Northborough,W,,,42.13288782,71.0398853,238039.9321,875931.861,T,66
R2392,redacted,redacted,Attleboro,R,,40.5,41.9308984,71.3530322,212189.2584,853404.6961,M,100
IC7,redacted,redacted,Wellesley,IC,,227.50875,42.29678257,71.2578621,219967.1154,894061.976,M,59
C5,redacted,redacted,Wellesley,C,,0,42.29789008,71.2738503,218648.3752,894181.3732,M,100
G30,redacted,redacted,Boston,G,,30,42.2857332,71.1098881,232174.854,892879.9022,M,100
R1528,redacted,redacted,Boston,R,,30,42.3641536,71.0555194,236613.5356,901612.3402,M,100
R1341,redacted,redacted,Brockton,R,,24,42.05880319,71.0675358,235795.6701,867691.3224,M,100
C6,redacted,redacted,Boston,C,,0,42.3494871,71.0722498,235243.5712,899976.2082,M,100
R3000,redacted,redacted,Boston,R,,55.5,42.35469135,71.0623664,236054.916,900558.4018,M,100
R3730,redacted,redacted,WESTPORT,R,,148.5,41.5141105,71.0683818,236031.7787,807193.5417,M,59
R3259,redacted,redacted,Lowell,R,,75,42.64463491,71.3036029,216106.2842,932691.5792,M,100
F43,redacted,redacted,Lawrence,F,,,42.68977206,71.1531373,228425.3462,937744.9393,M,100
R2406,redacted,redacted,Holden,R,,42,42.34170167,71.8431267,171725.2835,899079.9304,M,100
R20,redacted,redacted,Allston,R,,15,42.35018931,71.1316777,230346.8283,900031.3569,M,100
R475,redacted,redacted,Haverhill,R,,18,42.74375244,71.1100955,231925.1785,943756.6709,M,100
R476,redacted,redacted,Worcester,R,,18,42.2725138,71.8142941,174072.8498,891385.7485,M,100
R2504,redacted,redacted,Wareham,R,,45,41.76197907,70.6742504,268666.8393,834964.9593,T,60
R2505,redacted,redacted,Saugus,R,,45,42.45873897,70.9894127,241996.0439,912149.0026,M,100
F44,redacted,redacted,North Andover,F,,,42.6584246,71.1139343,231653.7654,934276.5057,M,100
F45,redacted,redacted,Billerica,F,,,42.60445158,71.2837153,217748.5611,928231.7929,M,100
IH607,redacted,redacted,LYNN,IH,,4.9275,42.46422963,70.9576231,244606.8369,912775.029,M,100
R992,redacted,redacted,Lynn,R,,22.5,42.46422963,70.9576231,244606.8369,912775.029,M,100
W33,redacted,redacted,Kingston,W,,,42.10290202,70.9427958,246088.4446,872649.2246,T,66
IH218,redacted,redacted,HAVERHILL,IH,,25.2945,42.77198621,71.0593804,236061.4719,946913.317,M,100
R3798,redacted,redacted,Newton,R,,225,42.35600256,71.1992439,224777.6617,900655.2352,M,81
F46,redacted,redacted,Swansea,F,,,41.77574884,71.2095885,224144.8623,836203.0595,M,100
IH67,redacted,redacted,GEORGETOWN,IH,,0,42.72022441,71.0068234,240396.0706,941186.7975,T,63
R883,redacted,redacted,Quincy,R,,21,42.2734341,71.0253863,239151.7571,891549.1296,M,100
IH219,redacted,redacted,TEMPLETON,IH,,30.879,42.60982655,72.0614523,153930.8203,928957.9869,M,100
R993,redacted,redacted,Lynnfield,R,,22.5,42.51669853,71.0030336,240838.2191,918580.4368,M,100
C7,redacted,redacted,Falmouth,C,,22.8,41.6311478,70.6001731,274979.9537,820496.9431,M,100
R2058,redacted,redacted,Westford,R,,37.5,42.56145645,71.4315349,205622.1609,923435.5123,M,100
R994,redacted,redacted,Brighton,R,,22.5,42.33605248,71.1505808,228795.8073,898454.5503,M,100
R477,redacted,redacted,Boston,R,,18,42.34980286,71.0783642,234739.6185,900008.7734,M,100
R478,redacted,redacted,Salem,R,,18,42.5220296,70.8957515,249649.7947,919229.5124,M,100
R995,redacted,redacted,Kingston,R,,22.5,41.99904716,70.7304617,263755.0516,861251.0508,M,100
R21,redacted,redacted,Boston,R,,15,42.31889542,71.0567419,236538.9605,896584.7721,M,100
R3733,redacted,redacted,Sterling,R,,150,42.46175254,71.7457338,179789.1511,912387.166,M,100
R2059,redacted,redacted,Hyannis,R,,37.5,41.67239013,70.2956343,300290.1322,825390.1812,M,100
R996,redacted,redacted,Hull,R,,22.5,42.27377934,70.8608496,252724.1874,891676.0907,M,100
F47,redacted,redacted,Walpole,F,,,42.11379292,71.2430005,221253.8684,873740.3746,M,100
R3649,redacted,redacted,Scituate,R,,112.5,42.2031686,70.7264748,263879.7487,883925.188,M,100
R2060,redacted,redacted,Boston,R,,37.5,42.35368361,71.0479883,237240.0604,900452.6448,M,100
R1529,redacted,redacted,Amesbury,R,,30,42.85705694,70.9315856,246457.4189,956425.6121,M,100
W34,redacted,redacted,Natick,W,,,42.10288427,70.9482933,245633.7422,872644.2978,T,66
R2061,redacted,redacted,Boston,R,,37.5,42.35161009,71.078539,234724.2282,900209.4398,M,100
R479,redacted,redacted,BOSTON,R,,18,42.3467917,71.0512839,236972.5736,899685.692,M,100
R480,redacted,redacted,Amesbury,R,,18,42.85793144,70.9287004,246692.5759,956524.3366,M,100
R1530,redacted,redacted,Marblehead,R,,30,42.50674702,70.8446915,253858.2484,917562.9351,M,100
R2506,redacted,redacted,Centerville,R,,45,41.6372177,70.3397046,296673.6786,821433.1536,M,100
R2062,redacted,redacted,BARNSTABLE,R,,37.5,41.70091284,70.2889496,300801.7678,828565.696,M,51
G31,redacted,redacted,Barre,G,,52.5,42.40960781,72.0978759,150786.2901,906738.3618,M,100
C8,redacted,redacted,Boston,C,,11.4,42.37140848,71.056767,236506.5828,902417.6448,M,100
R3791,redacted,redacted,Abington,R,,195,42.13739834,70.9503681,245437.4303,876476.6493,M,100
F48,redacted,redacted,Great Barrington,F,,,42.17042717,73.3633307,46051.931,881680.4445,M,100
R22,redacted,redacted,Quincy,R,,15,42.2672361,71.0169371,239852.6419,890864.6124,M,100
R1392,redacted,redacted,Waban,R,,25.5,42.3269159,71.2304659,222215.6694,897415.8136,M,100
F49,redacted,redacted,East Weymouth,F,,,42.19280079,70.9254591,247455.1486,882643.7727,M,100
R1531,redacted,redacted,Cambridge,R,,30,42.37259813,71.1161357,231616.161,902526.0779,M,100
F50,redacted,redacted,Greenfield,F,,,42.59004028,72.6009158,109639.3865,927191.5814,M,100
W35,redacted,redacted,Hudson,W,,,42.0984916,70.9503712,245465.0243,872155.298,T,66
R884,redacted,redacted,Somerville,R,,21,42.39643868,71.1036774,232629.9481,905178.8881,M,100
F51,redacted,redacted,Worcester,F,,,42.2955635,71.7716572,177598.2508,893933.8991,M,100
R1994,redacted,redacted,Marshfield,R,,34.5,42.09220904,70.7034036,265900.076,871618.7305,M,100
R1995,redacted,redacted,Salisbury,R,,34.5,42.869505,70.88326,250397.078,957835.915,M,100
R23,redacted,redacted,Milford,R,,15,42.14348233,71.5150633,198754.8428,877006.1259,M,100
R997,redacted,redacted,Saugus,R,,22.5,42.45427898,71.0236093,239186.1505,911637.3243,M,100
IH220,redacted,redacted,DUXBURY,IH,,39.42,42.02991661,70.7385664,263053.0004,864673.5648,M,100
IC8,redacted,redacted,Longmeadow,IC,,103.194,42.05521281,72.5816793,110464.8416,867769.5175,M,100
IH85,redacted,redacted,LYNN,IH,,38.6973,42.47264719,70.9566607,244680.0339,913710.5334,M,100
W36,redacted,redacted,Worcester,W,,,42.19362126,71.8471738,171324.8442,882633.4357,T,66
IC63,redacted,redacted,Boston,IC,,14.7042,42.35212385,71.0766489,234879.6621,900267.2769,M,100
IP1,redacted,redacted,Norfolk,IP,,56.7575,42.120679,71.301563,216408.9679,874492.3017,M,100
F52,redacted,redacted,Norfolk,F,,,42.14614193,71.32061,214828.0136,877317.0155,M,100
F53,redacted,redacted,Quincy,F,,,42.23285163,71.0146114,240066.2444,887046.5342,M,64
W37,redacted,redacted,Hanover,W,,,42.41792368,71.1430214,229380.7144,907551.0736,T,66
IH221,redacted,redacted,BROCKTON,IH,,55.5165,42.09006222,71.054614,236847.0845,871168.7525,M,100
F54,redacted,redacted,Dennis,F,,,41.73667305,70.2009775,308063.0912,832644.783,M,44
C9,redacted,redacted,Boston,C,,657,42.31968122,71.0475243,237298.3208,896676.0441,M,100
C10,redacted,redacted,West Yarmouth,C,,0,41.65530498,70.2558899,303627.1862,823540.2772,M,100
R24,redacted,redacted,North Andover,R,,15,42.70314424,71.1313069,230207.9129,939237.9046,M,100
IH70,redacted,redacted,GREENFIELD,IH,,56.1735,42.59558799,72.5913032,110436.2094,927797.6511,M,100
IH133,redacted,redacted,WARE,IH,,15.60375,42.25334741,72.2412443,138834.4606,889474.8577,M,100
IH121,redacted,redacted,SPRINGFIELD,IH,,411.31485,42.12075703,72.6052361,108609.3866,875073.983,M,100
G32,redacted,redacted,Newton,G,,36,42.31094704,71.2146677,223523.7212,895646.3045,M,100
G33,redacted,redacted,Allston,G,,22.5,42.35466962,71.134798,230087.616,900527.9047,M,100
R481,redacted,redacted,Holliston,R,,18,42.18000017,71.4493053,204188.0872,881063.3883,M,100
G34,redacted,redacted,Boston,G,,300,42.35044911,71.0574335,236463.7644,900089.2916,M,100
R2894,redacted,redacted,CHILMARK,R,,52.5,41.34383254,70.8148317,257349.8623,788420.2348,M,81
R1532,redacted,redacted,Harwich Port,R,,30,41.67029854,70.0951204,316989.782,825413.2911,T,63
W38,redacted,redacted,Chelsea,W,,,42.39529006,71.0527082,236826.9629,905072.0561,M,54
R1533,redacted,redacted,Boston,R,,30,42.3566493,71.0697051,235449.2213,900772.8053,T,100
G35,redacted,redacted,Boston,G,,22.5,42.3593178,71.0676709,235615.3022,901070.0572,M,100
R3260,redacted,redacted,NEWTON CENTER,R,,75,42.33052822,71.1918792,225394.6223,897827.8226,M,58
R1393,redacted,redacted,Malden,R,,25.5,42.41762128,71.0757203,234919.9836,907542.8522,M,100
F55,redacted,redacted,Cambridge,F,,,42.37217845,71.1191386,231369.0408,902478.3532,M,100
IH222,redacted,redacted,STONEHAM,IH,,55.5165,42.50181191,71.0988641,232971.1862,916885.3781,M,100
IH223,redacted,redacted,WORCESTER,IH,,53.874,42.28010933,71.7642641,178202.5846,892215.4199,M,100
IH224,redacted,redacted,NATICK,IH,,17.4105,42.30133284,71.3549438,211960.7381,894549.2272,M,100
IH225,redacted,redacted,NORTHBRIDGE,IH,,50.589,42.15652891,71.6516446,187467.4151,878466.2699,M,100
IH226,redacted,redacted,WESTBOROUGH,IH,,49.932,42.27961456,71.6063793,191225.3874,892132.1686,M,100
IH227,redacted,redacted,NORTHBOROUGH,IH,,31.536,42.31060594,71.655085,187214.2017,895580.6946,M,100
IH608,redacted,redacted,HOLYOKE,IH,,18.7245,42.16390157,72.6340192,106293.1985,879896.9585,M,100
IC9,redacted,redacted,Worcester,IC,,123.251625,42.2688769,71.8114748,174303.9469,890980.9305,M,100
R998,redacted,redacted,Bedford,R,,22.5,42.49447417,71.2852113,217656.5588,916015.0003,M,100
IH228,redacted,redacted,NEW BEDFORD,IH,,23.9805,41.6451355,70.9287451,247591.1287,821814.3884,M,100
W39,redacted,redacted,Woburn,W,,,42.49331289,71.1367314,229862.7378,915927.3646,T,66
R1937,redacted,redacted,Braintree,R,,33,42.2068639,71.0219274,239478.5302,884156.6184,M,100
R25,redacted,redacted,Norwell,R,,15,42.15950041,70.8537837,253403.2098,878987.4782,M,100
R482,redacted,redacted,CHESTNUT HILL,R,,18,42.32706904,71.1446937,229285.1222,897458.7175,M,92
R483,redacted,redacted,Boston,R,,18,42.36122533,71.0569556,236496.917,901286.4661,M,100
G36,redacted,redacted,Beverly,G,,75,42.54815013,70.8787749,251023.5663,922140.9676,M,100
R484,redacted,redacted,Medfield,R,,18,42.18690117,71.3047807,216126.069,881847.1117,M,100
R26,redacted,redacted,Worcester,R,,15,42.28705071,71.8073415,174652.2051,892998.3338,M,100
R999,redacted,redacted,TYNGSBORO,R,,22.5,42.68830725,71.4323547,205543.6661,937526.6191,M,19
R485,redacted,redacted,Taunton,R,,18,41.9223155,71.090617,233957.9799,852522.3908,M,100
R27,redacted,redacted,Boston,R,,15,42.3639707,71.0543011,236713.9968,901592.5483,M,100
R3040,redacted,redacted,Rockland,R,,60,42.16157,70.9013664,249469.4401,879188.6525,M,100
R2063,redacted,redacted,Bellingham,R,,37.5,42.01890114,71.4960292,200328.8762,863168.6424,M,100
R2064,redacted,redacted,Wakefield,R,,37.5,42.523039,71.078208,234657.3322,919251.4651,M,100
G37,redacted,redacted,Boston,G,,7.5,42.33263626,71.0513924,236971.8998,898113.3334,M,100
F56,redacted,redacted,Gloucester,F,,,42.5834274,70.7151409,264427.0514,926170.2685,M,100
IH229,redacted,redacted,BELMONT,IH,,43.0335,42.38811761,71.1929211,225285.7176,904224.3138,M,100
R393,redacted,redacted,Belmont,R,,16.5,42.3859093,71.1848873,225948.1469,903981.4346,M,100
F57,redacted,redacted,Belmont,F,,,42.40884046,71.1988293,224791.0968,906524.4127,M,100
F58,redacted,redacted,Northampton,F,,,42.31868724,72.6309859,106771.7904,897084.7979,M,100
F59,redacted,redacted,Falmouth,F,,,41.5522436,70.6162017,273735.1894,811719.744,M,100
R1534,redacted,redacted,Boston,R,,30,42.35060308,71.0787214,234709.747,900097.5118,M,100
R28,redacted,redacted,Cambridge,R,,15,42.3725895,71.1201341,231286.8452,902523.6453,T,100
R486,redacted,redacted,Natick,R,,18,42.29913679,71.387594,209268.857,894301.2374,M,100
R3261,redacted,redacted,Whitman,R,,75,42.09053233,70.9285623,247274.9396,871283.1265,M,100
R1535,redacted,redacted,EASTHAM,R,,30,41.8554039,69.986352,325681.6117,846124.2968,M,100
F60,redacted,redacted,Walpole,F,,,42.15929085,71.2024738,224587.7837,878804.7873,M,100
IC10,redacted,redacted,Boston,IC,,38.2725,42.3458423,71.0703854,235399.2224,899572.1338,M,94
IH230,redacted,redacted,BOSTON,IH,,67.3425,42.32796288,71.1054281,232520.9987,897572.2264,M,100
R3795,redacted,redacted,Taunton,R,,210,41.9293085,71.1005461,233130.738,853295.184,M,100
R885,redacted,redacted,Fall River,R,,21,41.6794031,71.1674386,227690.9212,825515.0258,M,100
R1000,redacted,redacted,BOXFORD,R,,22.5,42.70686471,71.066932,235480.1635,939675.9862,M,100
IC11,redacted,redacted,Waltham,IC,,398.246625,42.3906328,71.222512,222848.2228,904495.3439,M,81
F61,redacted,redacted,Milton,F,,,42.24548167,71.0691076,235560.8266,888425.225,M,100
W40,redacted,redacted,New Bedford,W,,,41.62477869,70.9160359,248665.3964,819560.629,M,66
IH231,redacted,redacted,LAWRENCE,IH,,14.454,42.7207411,71.1629384,227608.5556,941181.9609,M,100
IC12,redacted,redacted,Boston,IC,,286.122375,42.3468919,71.0892388,233845.1978,899681.0654,M,100
F62,redacted,redacted,South Deerfield,F,,,42.47786757,72.6104214,108697.0274,914742.4247,M,100
R29,redacted,redacted,New Bedford,R,,15,41.67916432,70.9245878,247911.9692,825596.1319,M,100
IC64,redacted,redacted,Pittsfield,IC,,44.6796,42.4576893,73.3152512,50702.65099,913495.4266,M,100
G38,redacted,redacted,Great Barrington,G,,27,42.19724275,73.3627522,46164.7606,884657.175,M,100
G39,redacted,redacted,Great Barrington,G,,105,42.19310868,73.3608942,46308.16761,884194.7505,M,100
F63,redacted,redacted,Pittsfield,F,,,42.4263,73.2079462,59457.0405,909827.166,M,100
IH232,redacted,redacted,SANDISFIELD,IH,,18.7245,42.09361075,73.0782402,69445.26603,872674.5594,M,100
IH111,redacted,redacted,PITTSFIELD,IH,,169.7688,42.45874207,73.248994,56153.66585,913498.4866,M,100
IH112,redacted,redacted,PITTSFIELD,IH,,18.7245,42.45642342,73.2812577,53495.13952,913295.9013,M,100
F64,redacted,redacted,Housatonic,F,,,42.2535896,73.3648917,46124.92964,890918.1956,M,63
W41,redacted,redacted,Southfield,W,,,42.09894416,73.2330518,56652.7102,873515.4013,M,66
F65,redacted,redacted,Great Barrington,F,,,42.17913594,73.3632182,46082.35178,882647.3179,M,100
IH233,redacted,redacted,PITTSFIELD,IH,,14.454,42.44624007,73.2545368,55669.29707,912119.4309,M,100
IS1,redacted,redacted,Sheffield,IS,,27.286875,42.11573096,73.4080807,42219.41183,875688.4743,M,100
W42,redacted,redacted,Southfield,W,,,42.0818599,73.2238438,57375.88341,871602.785,M,66
F66,redacted,redacted,Medford,F,,,42.40520212,71.08892,233840.2504,906158.0513,M,100
F67,redacted,redacted,Medford,F,,,42.40520212,71.08892,233840.2504,906158.0513,M,100
F68,redacted,redacted,Chicopee,F,,,42.1463307,72.6120623,108082.0025,877921.5975,M,100
R811,redacted,redacted,Chestnut Hill,R,,19.5,42.32980122,71.1613112,227914.2753,897756.6226,M,100
R3162,redacted,redacted,Chicopee,R,,61.5,42.19922888,72.5653527,112015.9808,883747.405,M,100
R2895,redacted,redacted,Salem,R,,52.5,42.50209452,70.8960159,249643.7502,917015.0071,M,100
R2065,redacted,redacted,Marlborough,R,,37.5,42.3480193,71.5150998,198755.8537,899724.9083,M,100
R2507,redacted,redacted,Holliston,R,,45,42.21144008,71.4252644,206171.1406,884556.9772,M,100
R2508,redacted,redacted,Longmeadow,R,,45,42.05652919,72.5552026,112658.1251,867888.2656,M,100
R2896,redacted,redacted,Boston,R,,52.5,42.3591284,71.0554539,236621.8422,901054.1929,M,100
R3041,redacted,redacted,Beverly,R,,60,42.5853648,70.8848143,250497.7239,926271.168,M,100
R3042,redacted,redacted,Marlborough,R,,60,42.3544315,71.6121173,190763.0174,900443.1149,M,100
R3043,redacted,redacted,Northborough,R,,60,42.28931671,71.6556626,187162.2631,893216.077,M,100
R3044,redacted,redacted,West Springfield,R,,60,42.126778,72.6263034,106876.2864,875765.4733,M,100
R3223,redacted,redacted,Swampscott,R,,72,42.48190709,70.9023107,249142.0817,914768.9903,M,100
R3262,redacted,redacted,Andover,R,,75,42.65412011,71.13889,229609.6686,933789.3817,M,100
R3263,redacted,redacted,Boston,R,,75,42.34830854,71.0732095,235165.1573,899844.9033,M,100
R3264,redacted,redacted,Cambridge,R,,75,42.37331705,71.1204878,231257.3564,902604.329,M,100
R3265,redacted,redacted,Cambridge,R,,75,42.36325903,71.0972111,233179.731,901495.9184,M,100
R3266,redacted,redacted,Canton,R,,75,42.14085818,71.1486273,229046.1116,876774.3724,M,100
R3267,redacted,redacted,Chelmsford,R,,75,42.59689676,71.3536834,212008.3481,927380.3719,M,100
R3268,redacted,redacted,Framingham,R,,75,42.2985831,71.4008469,208176.114,894238.381,M,100
R3269,redacted,redacted,Newton,R,,75,42.3584025,71.1849181,225956.8972,900926.0714,M,100
R3270,redacted,redacted,Taunton,R,,75,41.86708842,71.0500715,237353.5231,846405.4071,M,100
R3271,redacted,redacted,Woburn,R,,75,42.50657825,71.1310517,230323.2684,917402.879,M,100
R3422,redacted,redacted,Boston,R,,84,42.3377725,71.105133,232540.2735,898661.9421,M,100
R3423,redacted,redacted,Braintree,R,,84,42.21145323,71.0185965,239750.7125,884667.9099,M,100
R3424,redacted,redacted,PLYMOUTH,R,,84,41.95011316,70.7175363,264875.728,855825.9369,M,51
R3425,redacted,redacted,Reading,R,,84,42.51901184,71.0937031,233386.2929,918797.9486,M,100
R3426,redacted,redacted,Westborough,R,,84,42.28475344,71.6132949,190655.7224,892703.703,M,100
R3452,redacted,redacted,Medford,R,,87,42.40416675,71.0874695,233960.2091,906043.6221,M,100
R3481,redacted,redacted,Hingham,R,,90,42.1803821,70.9062654,249050.0609,881275.2821,M,100
R3583,redacted,redacted,Randolph,R,,97.5,42.16291355,71.0604795,236320.1384,879257.8645,M,100
R3584,redacted,redacted,Wellesley,R,,97.5,42.30442256,71.2839763,217811.5454,894904.8045,T,62
R3611,redacted,redacted,West Roxbury,R,,103.5,42.29336169,71.1623238,227846.8352,893708.7809,M,64
R3615,redacted,redacted,North Andover,R,,105,42.6737644,71.1257719,230675.723,935976.2001,M,100
R3616,redacted,redacted,Waltham,R,,105,42.39780654,71.2649696,219350.1002,905281.6799,M,100
R3646,redacted,redacted,Cambridge,R,,111,42.3946797,71.1407841,229575.7315,904969.9762,M,100
R3650,redacted,redacted,Amherst,R,,112.5,42.38055303,72.519363,116054.6315,903840.1601,M,100
R3651,redacted,redacted,Norwood,R,,112.5,42.16465884,71.1989586,224876.1755,879402.0397,M,87
R3652,redacted,redacted,Peabody,R,,112.5,42.5215825,70.99743,241295.4911,919125.6428,M,100
F69,redacted,redacted,Springfield,F,,,42.11614804,72.5501908,113154.48,874504.5832,M,100
F70,redacted,redacted,Lowell,F,,,42.6404573,71.3132893,215312.9346,932225.7259,M,100
F71,redacted,redacted,Worcester,F,,,42.23562672,71.7498478,179377.2156,887270.9778,M,100
R30,redacted,redacted,Norwood,R,,15,42.16187309,71.1998239,224805.7672,879092.3687,M,100
C11,redacted,redacted,Bass River,C,,0,41.64489978,70.2034437,308012.8842,822449.7898,M,100
C12,redacted,redacted,Boston,C,,0,42.3386361,71.1067775,232404.3155,898757.2405,M,100
C13,redacted,redacted,Cambridge,C,,0,42.38868021,71.1430812,229389.3862,904302.7796,M,100
C14,redacted,redacted,North Falmouth,C,,0,41.56213985,70.5980511,275237.8137,812834.6882,M,100
C15,redacted,redacted,West Springfield,C,,0,42.13339647,72.6258413,106924.1988,876500.0311,M,100
C16,redacted,redacted,Fitchburg,C,,16,42.54586902,71.8528464,171018.1717,921761.7147,M,64
C17,redacted,redacted,Marlborough,C,,0,42.33902882,71.589433,192630.1132,898730.032,M,100
C18,redacted,redacted,Auburn,C,,0,42.18848819,71.8497531,171109.4634,882064.1659,M,100
IH97,redacted,redacted,NEEDHAM,IH,,36.2007,42.2774242,71.2373794,221662.7693,891916.7517,M,100
IH13,redacted,redacted,BOSTON,IH,,132.3198,42.34060284,71.1054534,232512.4121,898976.1997,M,100
IH14,redacted,redacted,BOSTON,IH,,246.53925,42.3385326,71.1092606,232199.7412,898744.8038,M,100
IH234,redacted,redacted,FRAMINGHAM,IH,,55.5165,42.26857502,71.4308004,205708.8682,890902.7982,M,100
R3182,redacted,redacted,Falmouth,R,,67.5,41.55229689,70.6097276,274275.2454,811731.2798,M,100
R394,redacted,redacted,Buzzards Bay,R,,16.5,41.74902375,70.6051272,274429.8018,833584.0943,M,100
R2066,redacted,redacted,Boston,R,,37.5,42.34235759,71.0852677,234174.8486,899179.0001,M,100
R31,redacted,redacted,East Longmeadow,R,,15,42.07841489,72.5267046,115046.1235,870290.1672,M,100
R3482,redacted,redacted,Beverly,R,,90,42.5468329,70.8852245,250494.9028,921990.8123,M,100
IH68,redacted,redacted,GLOUCESTER,IH,,49.30785,42.625357,70.6791861,267333.5777,930855.5342,M,100
IH11,redacted,redacted,BEVERLY,IH,,139.18545,42.56543381,70.8771764,251140.8423,924061.7848,M,100
G40,redacted,redacted,Beverly,G,,22.5,42.57197064,70.8931786,249821.7337,924778.4233,M,100
R2067,redacted,redacted,Worcester,R,,37.5,42.2646415,71.8191447,173669.438,890512.8274,M,100
W43,redacted,redacted,Revere,W,,,42.16178241,71.151649,228786.8283,879097.4318,T,66
2068,redacted,redacted,Acton,R,,37.5,42.52395113,71.432965,205507.9951,919269.2594,M,100
R1536,redacted,redacted,NEEDHAM HEIGHTS,R,,30,42.29869811,71.2318412,222112.1686,894281.163,M,52
R1537,redacted,redacted,Quincy,R,,30,42.2504223,70.9988259,241357.7673,889005.6822,M,100
R2509,redacted,redacted,Seekonk,R,,45,41.79892224,71.3306453,214075.0901,838749.7547,M,100
R2510,redacted,redacted,Somerville,R,,45,42.39347954,71.0949051,233353.7463,904853.5912,M,100
R2511,redacted,redacted,West Springfield,R,,45,42.14061221,72.6270228,106837.1149,877302.7184,M,100
R1538,redacted,redacted,Lynn,R,,30,42.46440161,70.9500139,245232.5112,912798.1392,M,100
R32,redacted,redacted,Cambridge,R,,15,42.36700443,71.0760244,234922.9053,901920.3989,M,96
G41,redacted,redacted,Easthampton,G,,150,42.269995,72.672105,103308.1976,891722.5672,M,100
R33,redacted,redacted,Boston,R,,15,42.3506805,71.0607219,236192.6983,900113.5925,M,100
F72,redacted,redacted,New Bedford,F,,,41.62578171,70.9163619,248637.4625,819671.8436,M,100
R1394,redacted,redacted,Lawrence,R,,25.5,42.71302366,71.1748816,226633.5649,940320.8564,M,100
G42,redacted,redacted,Adams,G,,200.1975,42.62065254,73.1186788,67211.41289,931268.9746,M,100
G43,redacted,redacted,Amherst,G,,305.08875,42.38153922,72.5318003,115031.7868,903962.0103,T,100
G44,redacted,redacted,Greenfield,G,,285,42.58640821,72.6270338,107490.4715,926816.1516,M,100
G45,redacted,redacted,Longmeadow,G,,304.5,42.05595854,72.5561171,112581.653,867825.8241,M,81
G46,redacted,redacted,Palmer,G,,315,42.16897,72.32629,131726.1301,880167.6906,T,100
G47,redacted,redacted,Pittsfield,G,,375,42.44819639,73.2577762,55407.33323,912342.1766,M,100
G48,redacted,redacted,Springfield,G,,450,42.13841498,72.5477057,113390.3534,876975.1015,M,100
G49,redacted,redacted,Ware,G,,187.5,42.25518562,72.252758,137886.2065,889687.3473,M,100
G50,redacted,redacted,West Springfield,G,,127.5,42.10715385,72.6892918,101638.2921,873656.6888,M,100
G51,redacted,redacted,Westfield,G,,45,42.1140824,72.7465275,96916.12667,874493.7626,M,100
G52,redacted,redacted,North Adams,G,,328.5,42.70027044,73.1109806,68009.89736,940099.857,M,100
G53,redacted,redacted,Palmer,G,,315,42.17267725,72.3251295,131826.0015,880578.5171,M,100
G54,redacted,redacted,Holden,G,,300,42.34496021,71.864765,169943.7777,899449.2728,M,100
G55,redacted,redacted,Greenfield,G,,300,42.58605611,72.6255409,107612.4929,926775.4241,M,100
G56,redacted,redacted,Ludlow,G,,300,42.16762856,72.481647,118888.2505,880154.746,M,100
G57,redacted,redacted,West Springfield,G,,300,42.09599993,72.6052463,108572.9101,872324.4147,M,100
G58,redacted,redacted,Southbridge,G,,300,42.06923067,72.0107078,157735.0079,868885.2977,M,100
G59,redacted,redacted,Great Barrington,G,,300,42.17930557,73.3633515,46071.7552,882666.3948,M,82
G60,redacted,redacted,Longmeadow,G,,300,42.05580943,72.5544218,112721.7674,867807.5278,M,100
G61,redacted,redacted,Worcester,G,,253.5,42.25774427,71.8259572,173104.4543,889748.8523,M,100
G62,redacted,redacted,Springfield,G,,253.5,42.13812467,72.570426,111511.8469,876966.1785,M,100
G63,redacted,redacted,Amherst,G,,253.5,42.36918978,72.5333906,114884.2148,902591.9559,M,100
G64,redacted,redacted,Worcester,G,,253.5,42.2391645,71.7458737,179706.3794,887662.9776,M,100
G65,redacted,redacted,Spencer,G,,253.5,42.2351507,72.0115435,157776.3689,887314.5135,M,100
G66,redacted,redacted,Chicopee,G,,253.5,42.17619337,72.5764901,111063.9362,881200.5344,M,100
G67,redacted,redacted,Springfield,G,,253.5,42.1369405,72.5184969,115802.8534,876782.0942,M,100
G68,redacted,redacted,Walpole,G,,253.5,42.14015296,71.2188575,223240.8347,876674.5176,M,100
G69,redacted,redacted,Chicopee,G,,249,42.18912266,72.5534933,112981.4986,882612.7968,M,100
G70,redacted,redacted,Northampton,G,,240,42.34164625,72.6409162,105987.3835,899645.667,M,100
G71,redacted,redacted,Southampton,G,,225,42.2525516,72.6984089,101111.2007,889815.3951,M,100
G72,redacted,redacted,Southwick,G,,225,42.02494306,72.7865376,93458.33863,864643.2234,M,100
G73,redacted,redacted,Ware,G,,150,42.25527972,72.2525866,137900.4417,889697.6746,M,100
G74,redacted,redacted,Springfield,G,,112.5,42.09516,72.4983877,117410.8478,872122.1258,M,100
G75,redacted,redacted,Westfield,G,,112.5,42.11255489,72.7180803,99266.03774,874290.1291,M,100
G76,redacted,redacted,South Hadley,G,,112.5,42.23690085,72.5827018,110636.3649,887949.4711,M,100
G77,redacted,redacted,South Hadley,G,,52.5,42.22266448,72.5721047,111491.1072,886357.2593,M,100
G78,redacted,redacted,Westfield,G,,45,42.1140509,72.7471126,96867.69315,874490.9716,M,100
G79,redacted,redacted,Adams,G,,30,42.62011661,73.1200268,67099.71712,931211.551,M,100
R395,redacted,redacted,Woburn,R,,16.5,42.46762334,71.1475392,228986.0759,913070.0666,M,100
R2069,redacted,redacted,Boston,R,,37.5,42.36393322,71.0510575,236981.2054,901589.7868,M,100
R2512,redacted,redacted,Revere,R,,45,42.41860248,70.994092,241637.6166,907688.4731,M,100
IH235,redacted,redacted,CHICOPEE,IH,,22.338,42.16709823,72.5423024,113875.9307,880155.3071,M,100
G80,redacted,redacted,Newton,G,,15,42.3611464,71.1985698,224831.1783,901226.7885,M,100
R487,redacted,redacted,West Harwich,R,,18,41.66927878,70.1126679,315530.5047,825276.1259,M,100
R2070,redacted,redacted,Waltham,R,,37.5,42.37136973,71.2369117,221669.1641,902351.9073,M,100
R1539,redacted,redacted,Amherst,R,,30,42.37622618,72.5188405,116091.916,903359.0662,M,100
R488,redacted,redacted,Westborough,R,,18,42.27558,71.60944,190972.3548,891684.3499,M,100
R1001,redacted,redacted,Lenox,R,,22.5,42.3578603,73.2828324,53136.82507,902352.8051,M,100
R489,redacted,redacted,Westport,R,,18,41.59913919,71.0865504,234469.2865,816629.8598,M,100
F73,redacted,redacted,Shelburne,F,,,42.58490143,72.7013741,101386.4863,926732.076,M,80
G81,redacted,redacted,Plymouth,G,,255,41.92883176,70.653405,270216.2863,853513.1187,M,100
R3045,redacted,redacted,Spencer,R,,60,42.30294649,71.9898099,159613.5191,894834.2534,M,100
R3046,redacted,redacted,South Hamilton,R,,60,42.6099948,70.8752797,251260.3249,929012.7729,M,100
R2513,redacted,redacted,Boston,R,,45,42.3586475,71.0542836,236718.5281,901001.28,M,100
R1540,redacted,redacted,Amherst,R,,30,42.3757912,72.5182565,116139.4338,903310.1789,M,100
R490,redacted,redacted,Nantucket,R,,18,41.28392715,70.1001025,317279.2193,782498.6747,M,100
W44,redacted,redacted,Boston,W,,,42.3360377,71.0799563,234615.9727,898479.1611,T,66
IH236,redacted,redacted,BLACKSTONE,IH,,10.8405,42.01640643,71.5463061,196164.6088,862892.5879,M,100
R3585,redacted,redacted,Boston,R,,97.5,42.36600203,71.0603359,236215.725,901815.5998,M,100
IH237,redacted,redacted,MILFORD,IH,,23.9805,42.1376441,71.5172749,198571.8998,876357.6955,M,100
IH238,redacted,redacted,TEWKSBURY,IH,,43.0335,42.61284547,71.2422858,221145.4803,929173.6613,M,100
IH239,redacted,redacted,WORCESTER,IH,,24.6375,42.2493102,71.7848267,176495.0963,888799.898,M,100
R491,redacted,redacted,Worcester,R,,18,42.2435897,71.8168258,173852.0691,888173.8157,M,100
R1541,redacted,redacted,Mashpee,R,,30,41.6183553,70.4903131,284150.6787,819178.6784,M,100
F74,redacted,redacted,Attleboro,F,,,41.93697339,71.2647134,219512.3885,854095.8512,M,100
W45,redacted,redacted,Attleboro,W,,,41.93773811,71.2655163,219445.5708,854180.6049,T,66
R3183,redacted,redacted,Worcester,R,,67.5,42.2564768,71.7979632,175413.811,889599.6217,M,100
F75,redacted,redacted,Groton,F,,,42.60130922,71.6212887,190046.4153,927867.3015,M,100
W46,redacted,redacted,Salem,W,,,41.94199483,71.2934738,217125.9338,854647.4006,T,66
F76,redacted,redacted,Fall River,F,,,41.74148875,71.1113784,232327.3602,832430.4023,M,100
R34,redacted,redacted,Hyannis,R,,15,41.65176664,70.2861019,301116.4604,823111.0631,M,100
R2897,redacted,redacted,Chatham,R,,52.5,41.67965965,69.9566506,328500.6909,826652.1176,M,100
R1996,redacted,redacted,Springfield,R,,34.5,42.11276355,72.5796259,110715.7079,874159.0831,M,100
R1542,redacted,redacted,Middleton,R,,30,42.57558252,70.9955909,241411.1352,925124.8631,M,100
IH240,redacted,redacted,STOUGHTON,IH,,30.222,42.10903787,71.070819,235495.8413,873269.5061,M,100
R2071,redacted,redacted,Worcester,R,,37.5,42.2637485,71.8196053,173631.0655,890413.7809,M,100
R396,redacted,redacted,Acushnet,R,,16.5,41.68408946,70.9097848,249140.7488,826151.565,M,64
R1543,redacted,redacted,NEWTON HIGHLANDS,R,,30,42.31265055,71.2114738,223786.3994,895836.4082,M,51
R492,redacted,redacted,Somerville,R,,18,42.39586418,71.1208487,231216.4982,905108.6489,M,100
R493,redacted,redacted,Longmeadow,R,,18,42.04995806,72.576398,110894.6102,867180.3848,M,100
R1544,redacted,redacted,Newburyport,R,,30,42.80827787,70.8736932,251228.7618,951039.9159,M,100
R2345,redacted,redacted,Northampton,R,,39,42.33445307,72.635897,106390.3128,898841.2261,M,100
R35,redacted,redacted,BRIGHTON,R,,15,42.3404574,71.1513342,228731.72,898943.5738,M,100
F77,redacted,redacted,Wellesley,F,,,42.28887813,71.2831699,217882.4285,893178.3767,M,86
W47,redacted,redacted,Canton,W,,,42.17423,71.11191,232064.449,880494.1805,T,66
R1545,redacted,redacted,ALLSTON,R,,30,42.35982609,71.1176135,231500.8029,901106.8664,M,100
W48,redacted,redacted,Newbury,W,,,42.79642245,70.8341862,254470.4556,949747.4017,T,66
R3483,redacted,redacted,Pembroke,R,,90,42.07446605,70.7810844,259490.5436,869590.9751,M,100
R2019,redacted,redacted,Lanesboro,R,,36,42.51517238,73.2280138,58005.9324,919730.3207,M,100
R2020,redacted,redacted,Andover,R,,36,42.60441664,71.1028892,232587.285,928281.2676,M,100
R2482,redacted,redacted,Salem,R,,43.5,42.49486303,70.9334122,246575.3898,916190.6547,M,100
G82,redacted,redacted,Medford,G,,40.5,42.40738471,71.1088622,232197.5004,906392.767,M,100
F78,redacted,redacted,Boston,F,,,42.28699653,71.1291154,230588.4602,893013.1516,M,100
R2898,redacted,redacted,Pembroke,R,,52.5,42.10784578,70.7628228,260969.6136,873311.2658,M,100
R494,redacted,redacted,Brookline,R,,18,42.34253369,71.1203572,231283.3331,899185.0961,M,100
495,redacted,redacted,Boston,R,,18,42.35508429,71.0538788,236753.9459,900605.6704,M,100
R1546,redacted,redacted,Boston,R,,30,42.34708804,71.0876171,233978.7102,899703.4965,M,100
R36,redacted,redacted,Boston,R,,15,42.35508429,71.0538788,236753.9459,900605.6704,M,100
R37,redacted,redacted,Boston,R,,15,42.35413853,71.0562975,236555.2306,900499.5807,M,100
R38,redacted,redacted,Boston,R,,15,42.34954802,71.08266,234385.818,899978.7261,M,100
R39,redacted,redacted,Boston,R,,15,42.34017397,71.0896496,233814.9392,898934.7075,M,100
R40,redacted,redacted,Boston,R,,15,42.35189951,71.0512404,236973.1731,900253.061,M,64
R41,redacted,redacted,Brighton,R,,15,42.3361175,71.1500657,228838.23,898461.9464,M,100
G83,redacted,redacted,Bolton,G,,15,42.43062941,71.5915679,192465.102,908904.9691,M,100
IH241,redacted,redacted,MARLBOROUGH,IH,,47.304,42.35986854,71.552111,195707.1133,901042.284,M,100
R3617,redacted,redacted,Boston,R,,105,42.36566686,71.051134,236973.8872,901782.3176,M,100
R42,redacted,redacted,Belmont,R,,15,42.3802309,71.1813389,226242.7005,903351.7831,M,100
R3015,redacted,redacted,HARWICH PORT,R,,57,41.67092365,70.0589809,319997.807,825532.9158,M,51
R3184,redacted,redacted,Boston,R,,67.5,42.3460798,71.0846514,234223.6188,899592.6918,M,100
R2899,redacted,redacted,Southbridge,R,,52.5,42.07627126,72.034844,155742.4801,869679.5304,M,100
R2072,redacted,redacted,Wellfleet,R,,37.5,41.93043917,70.0317785,321766.679,854391.2142,M,100
R3404,redacted,redacted,Lunenburg,R,,82.5,42.5871181,71.7693293,177892.475,926318.7285,M,100
R3618,redacted,redacted,Cambridge,R,,105,42.37441,71.1203501,231268.1519,902725.78,M,100
R3690,redacted,redacted,Saugus,R,,120,42.48057166,71.0211002,239376.1419,914559.0154,M,100
R2843,redacted,redacted,Leominster,R,,48,42.53304,71.7449162,179879.1342,920305.5867,M,100
G84,redacted,redacted,Scituate,G,,21,42.176325,70.71704,264686.2463,880950.8225,M,100
R1002,redacted,redacted,Medway,R,,22.5,42.16130435,71.4096714,207464.5959,878989.5017,M,100
IC65,redacted,redacted,Boston,IC,,10.3005,42.3487293,71.0857247,234133.753,899886.5555,M,100
F79,redacted,redacted,Quincy,F,,,42.2955945,71.031006,238674.6505,894007.9948,M,100
F80,redacted,redacted,Boston,F,,,42.23428017,71.1385712,229833.4222,887154.4142,M,100
R496,redacted,redacted,Boston,R,,18,42.3638801,71.0556557,236602.4663,901581.9028,M,100
F81,redacted,redacted,Boston,F,,,42.35062226,71.0701778,235413.6487,900103.1544,M,100
R2073,redacted,redacted,Boston,R,,37.5,42.33562907,71.0360897,238231.2468,898452.5044,M,100
F82,redacted,redacted,Woburn,F,,,42.48220405,71.1142358,231717.5766,914701.5253,M,100
F83,redacted,redacted,Boston,F,,,42.32899917,71.0661353,235758.9307,897703.0591,M,100
F84,redacted,redacted,Boston,F,,,42.32899917,71.0661353,235758.9307,897703.0591,M,100
F85,redacted,redacted,Roslindale,F,,,42.2866718,71.1302244,230497.1529,892976.6847,M,100
F86,redacted,redacted,Boston,F,,,42.3601743,71.0557685,236595.3184,901170.2315,M,40
G85,redacted,redacted,Newton,G,,150,42.3550881,71.1862982,225844.557,900557.5022,M,100
C19,redacted,redacted,Boston,C,,298.5,42.3481043,71.0775877,234804.5304,899820.4216,M,100
F87,redacted,redacted,Brookline,F,,,42.34190871,71.1216539,231176.7909,899115.2012,M,100
R2407,redacted,redacted,North Adams,R,,42,42.6961964,73.111229,67981.00076,939647.7491,M,100
F88,redacted,redacted,Lawrence,F,,,42.7064706,71.1565613,228137.2811,939598.781,M,100
C20,redacted,redacted,Boston,C,,38.3,42.35651175,71.0505008,237031.4065,900765.6865,M,95
IH242,redacted,redacted,BOSTON,IH,,31.536,42.2806768,71.0657077,235821.5061,892335.8791,M,100
F89,redacted,redacted,Boston,F,,,42.33154192,71.0673011,235661.4153,897985.0066,M,81
R1003,redacted,redacted,Saugus,R,,22.5,42.49099604,71.0164859,239748.9722,915719.0791,M,100
R1342,redacted,redacted,Malden,R,,24,42.42555513,71.0728133,235154.8282,908425.3139,M,100
R1395,redacted,redacted,FRAMINGHAM,R,,25.5,42.30808116,71.3834766,209607.0178,895295.1926,M,100
R1396,redacted,redacted,LUDLOW,R,,25.5,42.16074958,72.5105519,116490.9495,879418.6251,M,100
R1430,redacted,redacted,Norwood,R,,27,42.19246877,71.1972501,225006.395,882491.4471,M,100
R1547,redacted,redacted,Brockton,R,,30,42.0688655,71.0484537,237369.1866,868817.1214,M,100
R1548,redacted,redacted,East Longmeadow,R,,30,42.06427492,72.514245,116058.3665,868707.4028,M,100
R1549,redacted,redacted,Fitchburg,R,,30,42.55354978,71.7842338,176656.6374,922593.8584,M,100
R1550,redacted,redacted,Stoneham,R,,30,42.49792278,71.1008157,232812.8015,916452.6236,M,100
R1938,redacted,redacted,Lawrence,R,,33,42.67973956,71.133874,230008.7423,936637.0702,M,63
R1997,redacted,redacted,BOSTON,R,,34.5,42.29045564,71.0448247,237538.1705,893431.0298,M,100
R2346,redacted,redacted,Springfield,R,,39,42.14092041,72.4980221,117500.5569,877204.113,M,100
R2408,redacted,redacted,Framingham,R,,42,42.30296669,71.4017045,208104.8369,894725.2074,M,100
R2514,redacted,redacted,Chelmsford,R,,45,42.62513775,71.3614399,211366.6683,930516.4296,M,100
R43,redacted,redacted,Quincy,R,,15,42.24596034,71.0060923,240761.0061,888506.5838,M,100
R44,redacted,redacted,Waltham,R,,15,42.41169644,71.2335202,221934.5041,906832.1455,M,100
R45,redacted,redacted,Westborough,R,,15,42.28497072,71.6084547,191054.9554,892727.3183,M,100
R46,redacted,redacted,Westford,R,,15,42.56756353,71.4225319,206360.8423,924114.5341,M,100
R47,redacted,redacted,Worcester,R,,15,42.28303708,71.8085741,174548.9365,892552.8892,M,100
R497,redacted,redacted,Marlborough,R,,18,42.33899283,71.5895938,192616.8522,898726.0488,M,100
R812,redacted,redacted,Raynham,R,,19.5,41.90608398,71.0500303,237334.0975,850736.5555,M,100
W50,redacted,redacted,Everett,W,,,42.85881168,70.9297154,246608.9634,956621.5672,T,66
C21,redacted,redacted,Burlington,C,,32.9,42.48561633,71.2139962,223514.0293,915048.26,M,100
C22,redacted,redacted,Boston,C,,268.3,42.3469926,71.0797419,234627.6458,899696.0626,M,100
C23,redacted,redacted,Cambridge,C,,93.1,42.36241608,71.0858236,234118.2236,901406.7793,M,100
C24,redacted,redacted,Boston,C,,87.6,42.35975388,71.0509928,236988.9742,901125.5931,M,100
C25,redacted,redacted,Newton,C,,28.7,42.34569,71.25741,219988.9453,899494.4934,M,100
C26,redacted,redacted,Quincy,C,,36.5,42.23099782,71.0167052,239894.5778,886839.6469,M,100
IH15,redacted,redacted,BOSTON,IH,,187.86915,42.33575672,71.074103,235098.4989,898450.343,M,100
IH16,redacted,redacted,BOSTON,IH,,146.0511,42.33707127,71.0714544,235316.0329,898597.449,M,100
G86,redacted,redacted,Charlestown,G,,22.5,42.38131643,71.0535251,236767.8341,903519.5694,M,100
R3396,redacted,redacted,Boston,R,,78,42.34914,71.076935,234857.7385,899935.7286,M,100
C27,redacted,redacted,Boston,C,,164.3,42.3510039,71.0703577,235398.6168,900145.4704,M,100
R1551,redacted,redacted,Tyngsboro,R,,30,42.68435794,71.4292793,205796.062,937088.1079,M,100
F90,redacted,redacted,Boston,F,,,42.31825016,71.1012147,232873.3099,896495.0052,M,61
R1397,redacted,redacted,Boston,R,,25.5,42.3637376,71.0510388,236982.8574,901568.0659,M,100
F91,redacted,redacted,Roxbury,F,,,42.33030795,71.0704764,235400.4158,897846.6211,M,100
W51,redacted,redacted,Newton,W,,,42.84810647,70.931409,246478.4742,955431.3947,T,66
W52,redacted,redacted,Boston,W,,,42.35331776,71.0770032,234849.8215,900399.7459,T,66
R1905,redacted,redacted,Woburn,R,,31.5,42.51539116,71.1505739,228714.7676,918375.0598,M,100
IC13,redacted,redacted,Boston,IC,,2007.03825,42.35171686,71.1200786,231301.7403,900205.2225,M,100
C28,redacted,redacted,Boston,C,,93.1,42.350403,71.1090683,232209.5449,900063.3836,M,100
W53,redacted,redacted,Chelsea,W,,,42.39529006,71.0527082,236826.9629,905072.0561,M,59
IH243,redacted,redacted,BOSTON,IH,,39.7485,42.28756862,71.0463812,237411.516,893109.6745,M,100
R1004,redacted,redacted,Somerville,R,,22.5,42.38107246,71.0872438,233991.2023,903478.4839,M,100
R48,redacted,redacted,Springfield,R,,15,42.14151335,72.5568613,112637.8003,877328.5547,M,100
R498,redacted,redacted,Adams,R,,18,42.65528118,73.1099333,68001.36766,935101.4331,M,100
R499,redacted,redacted,Braintree,R,,18,42.22054,71.02812,238958.7543,885672.7993,M,100
IH244,redacted,redacted,BOURNE,IH,,46.647,41.73371304,70.5843899,276172.792,831901.9694,M,100
IH44,redacted,redacted,BROOKLINE,IH,,0,42.2979746,71.1510316,228775.9614,894224.9046,M,100
W54,redacted,redacted,Boston,W,,,42.64000821,71.1191042,231239.0237,932228.8288,T,66
G87,redacted,redacted,Lynn,G,,22.5,42.47130694,70.9251636,247271.0711,913578.6388,M,100
R3272,redacted,redacted,Abington,R,,75,42.13058446,70.9660411,244146.5182,875711.6025,M,100
R3047,redacted,redacted,North Attleboro,R,,60,41.98133835,71.3296416,214118.0408,859010.6334,M,100
G88,redacted,redacted,Boxford,G,,33,42.66253578,70.9977916,241173.5894,934782.7758,M,100
F92,redacted,redacted,Canton,F,,,42.14262337,71.124546,231035.9055,876978.9153,M,100
R500,redacted,redacted,Worcester,R,,18,42.27102307,71.8074501,174636.8316,891218.1092,M,100
R501,redacted,redacted,Danvers,R,,18,42.6011589,70.9593556,244367.9417,927984.1391,M,100
R2074,redacted,redacted,Haverhill,R,,37.5,42.76007547,71.0648832,235617.8586,945587.8614,M,100
F93,redacted,redacted,Weymouth,F,,,42.1880928,70.9679485,243948.9794,882098.0871,M,100
IH245,redacted,redacted,BROCKTON,IH,,39.42,42.09029376,71.06432,236043.977,871190.3227,M,100
IH39,redacted,redacted,BRAINTREE,IH,,103.6089,42.19876853,71.0190591,239720.4545,883258.7844,M,100
IH94,redacted,redacted,NATICK,IH,,13.10715,42.28118696,71.3337289,213714.3957,892314.7177,M,100
W55,redacted,redacted,Boston,W,,,42.3497579,71.0390427,237979.4084,900020.5411,M,100
F94,redacted,redacted,Everett,F,,,42.40325772,71.0491463,237115.55,905958.6179,M,100
IC14,redacted,redacted,Waltham,IC,,336.868875,42.36589768,71.2549612,220184.2711,901739.6629,M,100
R3484,redacted,redacted,Danvers,R,,90,42.55963098,70.9633279,244070.9818,923369.1229,M,100
IH246,redacted,redacted,DARTMOUTH,IH,,38.763,41.61163766,70.9390482,246757.26,818088.2461,M,100
IH247,redacted,redacted,NEW BEDFORD,IH,,44.3475,41.6306005,70.9289146,247587.8166,820199.9619,M,100
G89,redacted,redacted,Brant Rock,G,,60,42.09158111,70.6464746,270610.1916,871594.5447,M,100
R2021,redacted,redacted,Northampton,R,,36,42.31965418,72.6280213,107017.5762,897188.9555,M,100
R3273,redacted,redacted,Boston,R,,75,42.3457595,71.0813535,234495.5294,899558.443,M,100
R3274,redacted,redacted,Harwich Port,R,,75,41.66977531,70.0613194,319805.2454,825402.104,M,100
R502,redacted,redacted,Brockton,R,,18,42.08108702,70.9913074,242090.3728,870201.1748,M,100
R813,redacted,redacted,Worcester,R,,19.5,42.2718,71.77379,177413.8989,891294.9452,M,100
R1005,redacted,redacted,Webster,R,,22.5,42.04955339,71.8813552,168430.0708,866643.7695,M,100
R1006,redacted,redacted,Mashpee,R,,22.5,41.60232783,70.4668066,286131.256,817422.136,M,100
R503,redacted,redacted,Worcester,R,,18,42.26355382,71.7902048,176056.659,890383.4865,M,100
R1343,redacted,redacted,Hingham,R,,24,42.24192449,70.8889533,250431.2664,888120.9335,M,100
R3734,redacted,redacted,Lowell,R,,150,42.6510207,71.3164917,215047.768,933398.5909,M,100
R504,redacted,redacted,Brewster,R,,18,41.76374729,70.0737955,318591.8861,835820.4575,M,100
F95,redacted,redacted,Framingham,F,,,42.31250402,71.3920606,208898.6738,895785.532,M,100
R3485,redacted,redacted,UXBRIDGE,R,,90,42.02070198,71.5959584,192052.5993,863373.1251,M,81
IH151,redacted,redacted,NEEDHAM,IH,,39.42,42.27505606,71.2363787,221746.1246,891653.9674,M,100
R49,redacted,redacted,Palmer,R,,15,42.16301393,72.3428601,130350.4966,879519.5627,M,100
R3165,redacted,redacted,Chicopee,R,,63,42.1817665,72.57734,111001.5464,881820.3945,M,100
R2515,redacted,redacted,Hull,R,,45,42.26791696,70.8523301,253431.8992,891030.2495,M,100
IH152,redacted,redacted,BRIDGEWATER,IH,,14.1255,41.98656696,70.979438,243136.531,859708.9073,M,100
IC15,redacted,redacted,Bridgewater,IC,,683.872875,41.98735622,70.972904,243677.4242,859799.8942,M,100
IP2,redacted,redacted,Bridgewater,IP,,71.54,41.945324,70.950168,245591.5036,855143.4048,M,64
R3570,redacted,redacted,Attleboro,R,,91.5,41.91139903,71.258179,220062.336,851256.8562,M,100
IH17,redacted,redacted,BOSTON,IH,,476.22645,42.33583469,71.1074615,232349.3765,898445.8147,M,100
IH153,redacted,redacted,NEWBURYPORT,IH,,21.024,42.80586,70.8695,251573.7239,950773.8462,M,100
F96,redacted,redacted,Arlington,F,,,42.41731672,71.1577991,228164.7313,907478.6701,M,100
R2075,redacted,redacted,Belmont,R,,37.5,42.3784501,71.1708515,227107.125,903157.2579,M,100
R397,redacted,redacted,North Andover,R,,16.5,42.6795958,71.1337152,230021.8278,936621.1565,M,62
IH154,redacted,redacted,MEDFORD,IH,,46.647,42.42102681,71.1179786,231440.2822,907904.6898,M,100
R2409,redacted,redacted,Brighton,R,,42,42.35022105,71.1528308,228603.9829,900027.5733,M,100
IH155,redacted,redacted,BOSTON,IH,,25.623,42.343268,71.1392793,229723.7722,899259.8929,M,100
IC66,redacted,redacted,Fall River,IC,,130.41,41.71919121,71.1238275,231302.7093,829949.2443,M,100
R3275,redacted,redacted,Boston,R,,75,42.35256833,71.0681359,235580.7877,900320.1647,M,100
R505,redacted,redacted,Walpole,R,,18,42.13230932,71.2626107,219626.3794,875792.3173,M,100
R3022,redacted,redacted,Hyannis,R,,58.5,41.65248816,70.2845563,301244.0565,823193.0253,M,100
R3026,redacted,redacted,East Walpole,R,,58.5,42.15554837,71.2038938,224471.8794,878388.6953,M,100
R3027,redacted,redacted,Framingham,R,,58.5,42.2986203,71.3997193,208269.0913,894242.6218,M,100
R3028,redacted,redacted,Westford,R,,58.5,42.56960612,71.4199256,206574.6307,924341.628,M,100
F97,redacted,redacted,Medford,F,,,42.4116632,71.1071423,232336.8896,906868.6586,M,100
R506,redacted,redacted,Worcester,R,,18,42.2563438,71.7960959,175567.8378,889584.3122,M,100
R507,redacted,redacted,BROCKTON,R,,18,42.0855298,71.0198606,239725.0622,870680.9379,M,100
R1007,redacted,redacted,Brockton,R,,22.5,42.076736,71.0195499,239756.2733,869704.3606,M,100
W56,redacted,redacted,Brockton,W,,,42.10417251,71.0189881,239785.569,872751.9828,M,66
R1344,redacted,redacted,Westwood,R,,24,42.20169872,71.2494912,220688.4099,883502.6483,M,100
IH609,redacted,redacted,WEST BROOKFIELD,IH,,7.227,42.2351664,72.1410694,147085.2827,887388.4936,T,82
IH156,redacted,redacted,LEXINGTON,IH,,16.0965,42.41545346,71.2319092,222065.8,907249.8823,M,100
IH610,redacted,redacted,SALEM,IH,,11.826,42.5213313,70.887261,250347.9861,919156.9232,M,100
IH157,redacted,redacted,BROOKLINE,IH,,39.42,42.33986,71.12414,230972.9298,898886.7349,M,100
IS2,redacted,redacted,North Andover,IS,,23.95575,42.68472402,71.1111926,231865.2417,937198.9985,M,100
R1552,redacted,redacted,Nantucket,R,,30,41.28516977,70.0995671,317321.8031,782637.4098,M,100
R398,redacted,redacted,Wakefield,R,,16.5,42.5030601,71.0701027,235334.4972,917035.5428,M,100
R50,redacted,redacted,Haverhill,R,,15,42.79709557,71.0880943,233697.9952,949690.9475,M,100
R1008,redacted,redacted,Winthrop,R,,22.5,42.38281585,70.9797565,242841.6944,903720.544,M,100
G90,redacted,redacted,Dorchester,G,,22.5,42.31732428,71.0657607,235796.4065,896406.4347,M,100
R3048,redacted,redacted,Quincy,R,,60,42.26580914,71.0278299,238954.8681,890701.0843,M,100
R3586,redacted,redacted,Halifax,R,,97.5,41.99653247,70.8427866,254451.4604,860893.922,M,100
508,redacted,redacted,Boston,R,,18,42.35393759,71.058432,236379.487,900476.3478,M,100
F98,redacted,redacted,Woburn,F,,,42.51010537,71.1435913,229291.0291,917790.2889,M,100
R399,redacted,redacted,Bedford,R,,16.5,42.48989962,71.2742056,218562.6204,915509.1956,M,100
R400,redacted,redacted,Woburn,R,,16.5,42.51010537,71.1435913,229291.0291,917790.2889,M,100
R807,redacted,redacted,Boston,R,,18,42.35475353,71.0546906,236687.2555,900568.5819,M,100
R808,redacted,redacted,Boston,R,,18,42.34917945,71.0955425,233324.5933,899932.6736,M,100
R809,redacted,redacted,Boston,R,,18,42.31262231,71.0964327,233270.4576,895871.7487,T,100
G91,redacted,redacted,Ipswich,G,,21,42.66517529,70.8349894,254518.4148,935167.3043,M,100
R1009,redacted,redacted,Springfield,R,,22.5,42.11583928,72.4999406,117309.3187,874420.3529,M,100
F99,redacted,redacted,Danvers,F,,,42.5618,70.97688,242956.6372,923603.145,M,100
R1553,redacted,redacted,Danvers,R,,30,42.5618,70.97688,242956.6372,923603.145,M,100
R3587,redacted,redacted,Provincetown,R,,97.5,42.04970916,70.1884308,308572.1399,867425.2529,M,100
W57,redacted,redacted,Salem,W,,,41.94199483,71.2934738,217125.9338,854647.4006,T,66
F100,redacted,redacted,Dennis,F,,,41.7385247,70.1917277,308829.3537,832862.1779,M,100
IH158,redacted,redacted,GREENFIELD,IH,,39.42,42.58170097,72.6170893,108299.8442,926282.5628,M,100
R509,redacted,redacted,Brockton,R,,18,42.0746641,71.0191733,239788.7296,869474.4116,M,100
R886,redacted,redacted,Amherst,R,,21,42.37586423,72.5183024,116135.7511,903318.3352,M,100
R3016,redacted,redacted,Fitchburg,R,,57,42.55356145,71.7842443,176655.7794,922595.1573,M,100
R51,redacted,redacted,Billerica,R,,15,42.53512772,71.2379332,221529.1419,920541.6802,M,100
R2393,redacted,redacted,Newton,R,,40.5,42.35690578,71.1865909,225819.7041,900759.3141,M,100
R2022,redacted,redacted,Methuen,R,,36,42.74213613,71.1560465,228163.4795,943560.9329,M,100
R2347,redacted,redacted,Watertown,R,,39,42.3624131,71.1534182,228550.0801,901381.6173,M,100
R2516,redacted,redacted,Framingham,R,,45,42.30312443,71.4012612,208141.3711,894742.771,M,100
R3049,redacted,redacted,Dedham,R,,60,42.23581438,71.1788473,226508.2814,887311.5212,M,100
R3405,redacted,redacted,Burlington,R,,82.5,42.4721648,71.211733,223705.1496,913554.699,M,100
R3735,redacted,redacted,Braintree,R,,150,42.19882741,70.9993863,241345.158,883274.6735,M,100
R1939,redacted,redacted,South Grafton,R,,33,42.17132516,71.6735112,185663.6055,880113.1684,M,100
R52,redacted,redacted,Jamaica Plain,R,,15,42.31149718,71.1144158,231788.4973,895739.917,M,100
R2900,redacted,redacted,Shirley,R,,52.5,42.58440925,71.6470699,187927.4337,925993.3261,M,100
R3276,redacted,redacted,Sturbridge,R,,75,42.11020655,72.0937368,150895.5022,873480.9181,M,100
R3050,redacted,redacted,Sudbury,R,,60,42.36027167,71.4501453,204106.9913,901086.9513,M,100
R510,redacted,redacted,Marshfield,R,,18,42.08185581,70.6532135,270063.4345,870508.84,M,100
R2076,redacted,redacted,Hyannis,R,,37.5,41.64937948,70.2905177,300752.4143,822840.7283,M,100
R511,redacted,redacted,Marlborough,R,,18,42.34667662,71.5492659,195940.6424,899576.8309,M,100
R1010,redacted,redacted,South Dennis,R,,22.5,41.71584719,70.1546622,311952.135,830391.7107,M,100
IC67,redacted,redacted,Boston,IC,,155.2068,42.37595879,71.0689909,235497.2183,902917.9137,M,100
R1554,redacted,redacted,Dracut,R,,30,42.6970205,71.3658305,210993.929,938500.9954,M,100
R1011,redacted,redacted,BOSTON,R,,22.5,42.35887614,71.0578106,236427.842,901025.164,M,100
R1012,redacted,redacted,Hyannis,R,,22.5,41.65201659,70.2893341,300846.852,823134.9952,M,100
R1013,redacted,redacted,Marlborough,R,,22.5,42.3544315,71.6121173,190763.0174,900443.1149,M,100
R1014,redacted,redacted,Medway,R,,22.5,42.15015972,71.4160426,206939.3091,877751.1034,M,100
R1015,redacted,redacted,Tewksbury,R,,22.5,42.62718429,71.2706365,218815.0286,930759.8331,M,100
R1016,redacted,redacted,Worcester,R,,22.5,42.26230485,71.79971,175271.9505,890247.4705,M,100
R1017,redacted,redacted,Worcester,R,,22.5,42.25542393,71.7990307,175325.3158,889482.9838,M,100
R1345,redacted,redacted,North Attleboro,R,,24,41.97233721,71.3368388,213523.5004,858009.7154,M,100
R1346,redacted,redacted,South Dennis,R,,24,41.69201999,70.1514247,312263.3656,827749.8624,M,100
R1347,redacted,redacted,Westford,R,,24,42.56756353,71.4225319,206360.8423,924114.5341,M,100
R1555,redacted,redacted,Amesbury,R,,30,42.84635791,70.9087054,248335.6618,955249.7647,M,100
R1556,redacted,redacted,Hanover,R,,30,42.14798295,70.8454968,254097.8457,877713.4649,M,100
R1557,redacted,redacted,Haverhill,R,,30,42.8134761,71.1025893,232503.6908,951505.0347,M,100
R1558,redacted,redacted,Kingston,R,,30,41.987695,70.71606,264959.7665,860001.0858,M,100
R1559,redacted,redacted,Marlborough,R,,30,42.3475157,71.5107703,199112.5726,899668.9165,M,100
R1560,redacted,redacted,Milford,R,,30,42.14970559,71.4864277,201121.7946,877697.3367,M,100
R1561,redacted,redacted,Quincy,R,,30,42.25606722,71.0328717,238544.8466,889616.7312,M,100
R1562,redacted,redacted,Winchester,R,,30,42.45839723,71.1396984,229635.2243,912047.9377,M,100
R1906,redacted,redacted,Blackstone,R,,31.5,42.04693847,71.5293915,197566.757,866283.1738,M,100
R1907,redacted,redacted,Braintree,R,,31.5,42.20309254,70.9992424,241354.2621,883748.4766,M,100
R1940,redacted,redacted,East Wareham,R,,33,41.75868791,70.6610115,269771.3061,834610.1781,M,100
R1998,redacted,redacted,Framingham,R,,34.5,42.27883084,71.4072161,207653.2969,892043.8081,M,100
R2023,redacted,redacted,Lowell,R,,36,42.62915937,71.3216827,214627.1774,930969.2267,M,100
R2077,redacted,redacted,Andover,R,,37.5,42.69011393,71.2094843,223807.606,937765.663,M,100
R2078,redacted,redacted,Boston,R,,37.5,42.38632909,71.0078037,240529.8042,904097.0713,M,100
R2079,redacted,redacted,Cambridge,R,,37.5,42.39007376,71.1504272,228783.8708,904455.0654,M,100
R2080,redacted,redacted,East Falmouth,R,,37.5,41.56310349,70.5966877,275350.4087,812942.9153,M,100
R2081,redacted,redacted,Fall River,R,,37.5,41.71613971,71.1524676,228920.8604,829600.2134,M,100
R2082,redacted,redacted,Framingham,R,,37.5,42.30215717,71.4039936,207916.1942,894635.0752,M,100
R2083,redacted,redacted,Ludlow,R,,37.5,42.16757775,72.4816694,118886.3383,880149.1238,M,100
R2084,redacted,redacted,Malden,R,,37.5,42.42557633,71.0419719,237692.8431,908440.8392,M,100
R2085,redacted,redacted,New Bedford,R,,37.5,41.67986022,70.9401193,246618.2477,825664.8159,M,100
R2086,redacted,redacted,North Dartmouth,R,,37.5,41.63952233,70.9826917,243100.6876,821162.2803,M,100
R2087,redacted,redacted,Northampton,R,,37.5,42.33530135,72.6362616,106361.5186,898935.8423,M,100
R2088,redacted,redacted,Northborough,R,,37.5,42.31738102,71.678704,185268.5424,896337.0494,M,100
R2089,redacted,redacted,Somerset,R,,37.5,41.73183022,71.171633,227319.2515,831336.5924,M,100
R2090,redacted,redacted,Springfield,R,,37.5,42.13821666,72.5829364,110477.8398,876989.4505,M,100
R2091,redacted,redacted,Springfield,R,,37.5,42.14335838,72.5532855,112935.8939,877529.8149,M,100
R2092,redacted,redacted,Stoughton,R,,37.5,42.10222123,71.0676549,235761.3661,872513.7029,M,100
R2093,redacted,redacted,West Springfield,R,,37.5,42.10439235,72.621316,107255.9436,873273.8426,M,100
R2094,redacted,redacted,Westfield,R,,37.5,42.1202845,72.7449728,97054.74086,875180.6895,M,100
R2095,redacted,redacted,Whitinsville,R,,37.5,42.12459903,71.6457386,187949.4497,874918.9036,M,100
R2096,redacted,redacted,Worcester,R,,37.5,42.2442783,71.8372248,172168.8354,888256.7556,M,100
R2348,redacted,redacted,BOSTON,R,,39,42.38121,71.031315,238596.9131,903517.5596,M,100
R2349,redacted,redacted,Boston,R,,39,42.3504234,71.0761659,234920.3979,900078.5976,M,100
R2350,redacted,redacted,Danvers,R,,39,42.54822464,70.9430256,245746.4392,922112.7972,M,100
R2351,redacted,redacted,Fitchburg,R,,39,42.58245396,71.774712,177448.9773,925802.0328,M,100
R2352,redacted,redacted,Gardner,R,,39,42.56538047,71.9912789,159660.2944,923985.3181,M,100
R2353,redacted,redacted,New Bedford,R,,39,41.61415643,70.9292455,247572.4629,818373.4147,M,100
R2354,redacted,redacted,Norwood,R,,39,42.21087763,71.1839124,226100.4677,884540.1613,M,100
R2355,redacted,redacted,Randolph,R,,39,42.16332711,71.0408008,237946.0408,879312.365,M,100
R2356,redacted,redacted,West Barnstable,R,,39,41.6891249,70.3380525,296732.7871,827199.7044,M,100
R2357,redacted,redacted,Worcester,R,,39,42.3167677,71.7963533,175569.9176,896295.9328,M,100
R2358,redacted,redacted,Worcester,R,,39,42.24833494,71.7619077,178386.1124,888685.5109,M,100
R2394,redacted,redacted,Stoneham,R,,40.5,42.48871677,71.1001968,232868.4646,915430.2661,M,100
R2410,redacted,redacted,Methuen,R,,42,42.7420835,71.1557285,228189.5466,943555.1918,M,100
R2411,redacted,redacted,Quincy,R,,42,42.2480231,71.0043202,240905.9216,888736.548,M,100
R2483,redacted,redacted,MATTAPAN,R,,43.5,42.26838437,71.0954768,233372.5701,890958.4427,M,100
R2517,redacted,redacted,Attleboro,R,,45,41.91407204,71.3612763,211508.5449,851534.664,M,100
R2518,redacted,redacted,Boston,R,,45,42.33903813,71.051195,236984.4313,898824.5039,M,100
R2519,redacted,redacted,Bridgewater,R,,45,41.99347588,70.9742545,243561.331,860478.9001,M,100
R2520,redacted,redacted,Brockton,R,,45,42.07240303,71.0434369,237782.2619,869212.2431,M,100
R2521,redacted,redacted,Burlington,R,,45,42.47347099,71.212587,223634.4299,913699.5523,M,100
R2522,redacted,redacted,Chelmsford,R,,45,42.62431322,71.3627577,211258.708,930424.6625,M,100
R2523,redacted,redacted,East Weymouth,R,,45,42.19125248,70.9311394,246987.1311,882468.656,M,100
R2524,redacted,redacted,Easthampton,R,,45,42.27947727,72.6711576,103400.8088,892774.6354,M,100
R2525,redacted,redacted,Fall River,R,,45,41.71207247,71.1277953,230975.9901,829157.1414,M,100
R2526,redacted,redacted,Greenfield,R,,45,42.60814431,72.5875261,110763.9626,929188.3815,M,100
R2527,redacted,redacted,Hudson,R,,45,42.37941426,71.5659682,194567.2418,903214.1532,M,100
R2528,redacted,redacted,Leominster,R,,45,42.53302849,71.7425038,180077.317,920303.7417,M,100
R2529,redacted,redacted,Lowell,R,,45,42.66432871,71.3033865,216118.995,934879.3106,M,100
R2530,redacted,redacted,Lynn,R,,45,42.47463546,70.9581284,244557.9374,913930.6171,M,100
R2531,redacted,redacted,Methuen,R,,45,42.70668908,71.2043006,224226.0229,939608.397,M,100
R2532,redacted,redacted,North Andover,R,,45,42.67443126,71.1275019,230533.5917,936049.6581,M,100
R2533,redacted,redacted,Pembroke,R,,45,42.10793309,70.7631191,260945.0298,873320.7514,M,100
R2534,redacted,redacted,Pittsfield,R,,45,42.44902298,73.2509166,55973.40516,912422.369,M,100
R2535,redacted,redacted,Pittsfield,R,,45,42.46535021,73.2052691,59764.02147,914159.5505,M,100
R2536,redacted,redacted,Plainville,R,,45,42.00964946,71.3047942,216170.0064,862159.5525,M,100
R2537,redacted,redacted,Plymouth,R,,45,41.95261184,70.6859966,267488.0257,856127.9227,M,100
R2538,redacted,redacted,Reading,R,,45,42.51889479,71.1033875,232590.5689,918781.2011,M,100
R2539,redacted,redacted,Roslindale,R,,45,42.27641332,71.1391826,229763.1521,891834.0714,M,100
R2540,redacted,redacted,Seekonk,R,,45,41.7984559,71.3307099,214069.8237,838697.9492,M,100
R2541,redacted,redacted,Sturbridge,R,,45,42.11167272,72.0908418,151136.0548,873642.101,M,100
R2542,redacted,redacted,Taunton,R,,45,41.88903278,71.1203977,231504.1657,848814.3247,M,100
R2543,redacted,redacted,Tewksbury,R,,45,42.5897422,71.2030236,224375.878,926617.7539,M,100
R2544,redacted,redacted,Waltham,R,,45,42.40319128,71.2340748,221891.8036,905887.2712,M,100
R2545,redacted,redacted,Waltham,R,,45,42.36127511,71.2391331,221489.625,901230.0714,M,100
R2546,redacted,redacted,Webster,R,,45,42.05939619,71.8654174,169754.1381,867731.2307,M,100
R2547,redacted,redacted,West Roxbury,R,,45,42.26639284,71.168533,227346.4334,890711.233,M,100
R2548,redacted,redacted,Whitman,R,,45,42.084891,70.9476904,245696.5558,870646.1256,M,100
R2549,redacted,redacted,Wilmington,R,,45,42.53902549,71.1417019,229432.8141,921003.3965,M,100
R2831,redacted,redacted,BOSTON,R,,46.5,42.30921402,71.058065,236435.4609,895508.8529,M,100
R2832,redacted,redacted,North Adams,R,,46.5,42.69710686,73.1128529,67849.87147,939751.3853,M,100
R2833,redacted,redacted,Salem,R,,46.5,42.50415006,70.9222179,247488.5942,917228.4131,M,100
R2844,redacted,redacted,Fairhaven,R,,48,41.64172202,70.8876885,251014.2108,821459.0018,M,100
R2845,redacted,redacted,Fall River,R,,48,41.69805049,71.1472606,229362.4814,827592.8808,M,100
R2846,redacted,redacted,Fall River,R,,48,41.71613971,71.1524676,228920.8604,829600.2134,M,100
R2847,redacted,redacted,Medford,R,,48,42.4022973,71.0983046,233069.2322,905831.7131,M,100
R2848,redacted,redacted,Middleboro,R,,48,41.89830465,70.9511387,245544.6086,849920.5729,M,100
R2849,redacted,redacted,SAUGUS,R,,48,42.4638817,71.024947,239070.1776,912703.3585,M,51
R2850,redacted,redacted,Somerville,R,,48,42.377654,71.0901006,233757.7672,903097.641,M,100
R2873,redacted,redacted,BRIDGEWATER,R,,49.5,41.95234509,71.0046489,241069.5178,855895.5192,M,63
R53,redacted,redacted,BOSTON,R,,15,42.36063443,71.0607914,236181.2776,901219.1977,M,100
R887,redacted,redacted,LEXINGTON,R,,21,42.4770936,71.2406119,221328.6855,914094.5633,M,44
R1431,redacted,redacted,Westborough,R,,27,42.28511788,71.6077678,191111.6299,892743.5926,M,100
R2550,redacted,redacted,Leominster,R,,45,42.55155524,71.7826841,176783.1727,922371.879,M,100
R2359,redacted,redacted,Boston,R,,39,42.3439971,71.0999249,232966.2175,899355.34,M,100
IH611,redacted,redacted,BOSTON,IH,,3.6135,42.314545,71.0731,235192.9465,896094.6739,M,100
IH612,redacted,redacted,WORCESTER,IH,,11.4975,42.32373173,71.7917624,175951.0189,897068.1592,M,100
R54,redacted,redacted,Ashland,R,,15,42.26177234,71.4793993,201699.7131,890145.0828,M,100
R2551,redacted,redacted,Somerville,R,,45,42.39536931,71.1218726,231132.4433,905053.3058,M,100
R512,redacted,redacted,ALLSTON,R,,18,42.36333693,71.1325679,230267.1982,901491.4217,M,100
R1018,redacted,redacted,Worcester,R,,22.5,42.32368353,71.7927083,175873.0343,897063.0724,M,100
R2412,redacted,redacted,Worcester,R,,42,42.27700565,71.8530727,170875.9604,891897.19,M,100
W58,redacted,redacted,Melrose,W,,,42.5744776,71.8238642,173410.7402,924930.1589,T,66
G92,redacted,redacted,North Andover,G,,30,42.71557793,71.1148486,231550.1314,940625.0775,M,100
G93,redacted,redacted,Brookline,G,,30,42.34570057,71.1275207,230691.5092,899534.2559,M,100
G94,redacted,redacted,Andover,G,,18,42.65595253,71.1399773,229519.6563,933992.5582,M,100
G95,redacted,redacted,Mansfield,G,,60,42.01424665,71.2412833,221429.4141,862684.1589,M,100
G96,redacted,redacted,Seekonk,G,,204,41.88779971,71.3332252,213841.3699,848620.7979,M,100
R2097,redacted,redacted,Rockland,R,,37.5,42.12353376,70.906989,249034.182,874960.7409,M,100
F101,redacted,redacted,Westport,F,,,41.56673413,71.0542261,237182.9514,813044.3281,M,100
F102,redacted,redacted,New Bedford,F,,,41.62556128,70.9162906,248643.5682,819647.4014,M,100
R1348,redacted,redacted,Norwood,R,,24,42.19293522,71.2015337,224652.3947,882542.0099,M,100
R3277,redacted,redacted,MONSON,R,,75,42.1423772,72.2802255,135505.1744,877178.2441,M,44
F103,redacted,redacted,Ayer,F,,,42.5531931,71.5669634,194500.4302,922517.5024,M,100
F104,redacted,redacted,Lawrence,F,,,42.69712967,71.160744,227798.7294,938559.7591,M,100
G97,redacted,redacted,Holyoke,G,,37.5,42.1975161,72.6038596,108833.5401,883597.6153,M,100
R513,redacted,redacted,Arlington,R,,18,42.41077396,71.1373278,229852.6963,906758.8805,M,100
R401,redacted,redacted,Lawrence,R,,16.5,42.69003,71.149505,228722.892,937774.8093,M,100
F105,redacted,redacted,Hingham,F,,,42.18055117,70.9039669,249239.8098,881295.3853,M,100
F106,redacted,redacted,Provincetown,F,,,42.05123665,70.1868779,308698.0704,867596.8698,M,100
R3185,redacted,redacted,Newton,R,,67.5,42.3523032,71.2037038,224411.664,900243.0392,T,63
R2552,redacted,redacted,Boston,R,,45,42.3479332,71.0851947,234177.8515,899798.3407,M,100
R514,redacted,redacted,Norwood,R,,18,42.19345,71.201215,224678.5212,882599.28,M,100
R3736,redacted,redacted,BRAINTREE,R,,150,42.20226591,71.0044502,240924.7226,883654.1492,M,100
R515,redacted,redacted,Wrentham,R,,18,42.0505128,71.3460636,212743.2415,866691.2569,M,100
R1019,redacted,redacted,Boston,R,,22.5,42.3523496,71.0709239,235351.2156,900294.7093,M,100
R3051,redacted,redacted,Quincy,R,,60,42.25194368,71.0369153,238213.6812,889156.8993,M,100
R3799,redacted,redacted,Burlington,R,,225,42.4826952,71.1881609,225639.2732,914731.2266,M,100
R516,redacted,redacted,Boston,R,,18,42.35653421,71.0539581,236746.5735,900766.6856,M,100
R2098,redacted,redacted,New Bedford,R,,37.5,41.6654455,70.9356915,246997.506,824066.271,M,100
R55,redacted,redacted,Provincetown,R,,15,42.0488474,70.1890575,308521.7381,867328.7499,M,100
R2901,redacted,redacted,Lenox,R,,52.5,42.35808876,73.282721,53146.52835,902377.984,M,100
R3052,redacted,redacted,Bedford,R,,60,42.49047758,71.2756675,218442.2661,915573.0779,M,100
R56,redacted,redacted,Wellesley,R,,15,42.29672607,71.292419,217117.5165,894048.1883,M,100
R1020,redacted,redacted,Shelburne Falls,R,,22.5,42.60363218,72.7399376,98251.50903,928857.8338,M,100
R2553,redacted,redacted,Boston,R,,45,42.37639062,71.0391289,237956.3272,902978.738,M,100
R2099,redacted,redacted,Mansfield,R,,37.5,42.02426328,71.2162125,223502.3122,863803.3064,M,100
R1563,redacted,redacted,Westfield,R,,30,42.11777737,72.7892045,93393.34338,874956.5821,M,100
R57,redacted,redacted,PLYMOUTH,R,,15,41.95613611,70.6641885,269292.2157,856536.8296,M,100
R58,redacted,redacted,CAMBRIDGE,R,,15,42.37057747,71.1135908,231826.7826,902302.5782,M,100
R1432,redacted,redacted,Randolph,R,,27,42.16553592,71.0440504,237676.1969,879556.2591,M,100
R1021,redacted,redacted,Boston,R,,22.5,42.35686785,71.0698249,235439.2253,900797.0311,T,100
R1349,redacted,redacted,Marblehead,R,,24,42.50161727,70.8560382,252930.0129,916986.0326,M,100
R402,redacted,redacted,CHESTNUT HILL,R,,16.5,42.3264665,71.1462994,229153.0533,897391.2403,M,72
F107,redacted,redacted,Ayer,F,,,42.55443247,71.575241,193820.7336,922655.7409,M,100
F108,redacted,redacted,Deerfield,F,,,42.47544779,72.6058928,109065.8775,914468.8203,M,100
R2554,redacted,redacted,West Springfield,R,,45,42.13310954,72.6258531,106922.8,876468.1767,M,100
G98,redacted,redacted,Reading,G,,60,42.50781554,71.1041304,232535.2364,917550.2371,M,100
IH613,redacted,redacted,FITCHBURG,IH,,9.198,42.58728239,71.8058239,174896.9447,926347.0782,M,100
R2100,redacted,redacted,Hubbardston,R,,37.5,42.47259243,72.050389,154740.229,913708.1673,T,100
F109,redacted,redacted,Salem,F,,,42.5095932,70.8960492,249635.1149,917847.9251,M,100
R3486,redacted,redacted,Boston,R,,90,42.3488644,71.0818288,234454.6752,899903.1281,M,100
R3487,redacted,redacted,Braintree,R,,90,42.22054,71.02812,238958.7543,885672.7993,M,100
R3488,redacted,redacted,Cambridge,R,,90,42.36700443,71.0760244,234922.9053,901920.3989,M,100
R3489,redacted,redacted,Wellesley,R,,90,42.29989567,71.2924234,217116.295,894400.2508,M,100
R3569,redacted,redacted,Boston,R,,90,42.35101,71.065977,235759.5388,900147.9753,M,100
R3653,redacted,redacted,Natick,R,,112.5,42.29923994,71.3851471,209470.6126,894312.9638,M,100
R2555,redacted,redacted,Danvers,R,,45,42.56892483,70.9739358,243193.5234,924396.0612,M,100
IH159,redacted,redacted,NORTHAMPTON,IH,,41.0625,42.32791322,72.6575987,104592.1126,898138.9173,M,100
F110,redacted,redacted,Fall River,F,,,41.72044915,71.1518771,228968.0431,830079.0499,M,100
R888,redacted,redacted,Cambridge,R,,21,42.37441,71.1201311,231286.1929,902725.8603,M,100
F111,redacted,redacted,Cambridge,F,,,42.3632724,71.0975261,233153.7748,901497.281,M,100
F112,redacted,redacted,Cambridge,F,,,42.3653827,71.0909817,233691.7449,901734.2488,M,100
IC68,redacted,redacted,Cambridge,IC,,84.672,42.3694405,71.1114874,232000.6006,902177.0752,M,100
R3490,redacted,redacted,Cambridge,R,,90,42.3821992,71.1196712,231320.2112,903591.2232,M,100
W59,redacted,redacted,South Easton,W,,,42.32855955,71.0743348,235083.3849,897650.8236,T,66
IH46,redacted,redacted,CAMBRIDGE,IH,,117.96435,42.37422032,71.1044895,232574.5297,902710.6463,M,100
IH119,redacted,redacted,SOMERVILLE,IH,,77.3946,42.3905296,71.1087216,232217.6638,904520.6114,M,100
IH58,redacted,redacted,EVERETT,IH,,101.1123,42.40949409,71.0391703,237933.0513,906655.7205,M,100
F113,redacted,redacted,Boston,F,,,42.33582729,71.0624452,236059.1781,898463.044,M,100
W60,redacted,redacted,Boston,W,,,42.33576863,71.0624327,236060.2371,898456.5333,M,66
IH160,redacted,redacted,CAMBRIDGE,IH,,27.2655,42.3699751,71.1101674,232109.0528,902236.9523,M,100
R3278,redacted,redacted,East Bridgewater,R,,75,42.05998922,70.9139083,248510.5566,867898.976,M,100
R3053,redacted,redacted,Gloucester,R,,60,42.61357318,70.6602079,268903.2519,929561.7545,M,100
R1022,redacted,redacted,Medford,R,,22.5,42.4210772,71.1316248,230317.184,907905.3467,M,100
R1564,redacted,redacted,Waltham,R,,30,42.37706855,71.230849,222166.5191,902986.4705,M,100
R3054,redacted,redacted,Harwich,R,,60,41.72029467,70.0248568,322744.3114,831064.1989,M,100
IH161,redacted,redacted,WESTON,IH,,22.995,42.3810839,71.3206929,214766.3041,903413.0318,M,100
W75,redacted,redacted,Watertown,W,,,42.58049023,72.21805,141054.2544,925795.6949,T,66
R517,redacted,redacted,Boston,R,,18,42.34415622,71.0957162,233312.9323,899374.6499,M,100
R3279,redacted,redacted,Ashland,R,,75,42.26993619,71.4576765,203491.5507,891052.5405,M,100
C29,redacted,redacted,Lenox,C,,0,42.34479312,73.2820891,53167.72288,900900.3848,M,100
F114,redacted,redacted,Gloucester,F,,,42.61702843,70.6523993,269540.0941,929951.8971,M,100
IH38,redacted,redacted,BOURNE,IH,,0,41.68954553,70.6011454,274830.589,826981.828,M,100
